Name;Sector;Lat;Long;PM-low(Gg/year);PM-high(Gg/year);PM-mean(Gg/year)
DAX OIL REFINO S.A. (DAX OIL);Petroleum refining;-12.623253;-38.091759;0.03449183;0.980498095;0.507494963
LUBRIFICANTES E DERIVADOS DE PETRÓLEO DO NORDESTE (LUBNOR);Petroleum refining;-3.716949;-38.470701;0.228684725;6.500812959;3.364748842
REFINARIA DE PETRÓLEO DE MANGUINHOS S.A. (MANGUINHOS);Petroleum refining;-22.887058;-43.236950;0.329674098;9.371634474;4.850654286
REFINARIA DE CAPUAVA (RECAP);Petroleum refining;-23.639649;-46.484534;1.407147852;40.00094456;20.70404621
REFINARIA DUQUE DE CAXIAS (REDUC);Petroleum refining;-22.716360;-43.266222;7.125752602;202.563529;104.8446408
REFINARIA ALBERTO PASQUALINI (REFAP);Petroleum refining;-29.872948;-51.167265;4.907003127;139.4912125;72.1991078
REFINARIA GABRIEL PASSOS (REGAP);Petroleum refining;-19.971965;-44.096005;4.368605635;124.1862051;64.27740539
REFINARIA ISAAC SABÁ (REMAN);Petroleum refining;-3.146537;-59.954154;1.397593985;39.7293571;20.56347554
REFINARIA PRESIDENTE GETÚLIO VARGAS (REPAR);Petroleum refining;-25.569079;-49.363216;6.371064272;181.1100293;93.74054678
REFINARIA DE PAULÍNIA (REPLAN);Petroleum refining;-22.729165;-47.135769;12.42797281;353.2895642;182.8587685
REFINARIA HENRIQUE LAGE (REVAP);Petroleum refining;-23.189659;-45.818118;7.915663372;225.0182959;116.4669796
REFINARIA DE PETRÓLEO RIOGRANDENSE S.A. (RIOGRANDENSE);Petroleum refining;-32.043478;-52.090103;0.49542767;14.08350568;7.289466676
REFINARIA LANDULPHO ALVES (RLAN);Petroleum refining;-12.709800;-38.573005;7.81410194;222.1312124;114.9726572
REFINARIA PRESIDENTE BERNARDES (RPBC);Petroleum refining;-23.871505;-46.435574;4.972101658;141.3417662;73.15693394
REFINARIA POTIGUAR CLARA CAMARÃO (RPCC);Petroleum refining;-5.132171;-36.384542;1.123168024;31.92825956;16.52571379
UNIVEN REFINARIA DE PETRÓLEO LTDA (UNIVEN);Petroleum refining;-23.139097;-47.024919;0.171039583;4.862136454;2.516588019
VOTORANTIM 1 - CE;Portland cement;-3.551047;-38.827241;0.128444444;147.4164444;73.77244444
VOTORANTIM 2 - CE;Portland cement;-3.686344;-40.374086;0.128444444;147.4164444;73.77244444
VOTORANTIM 3 - GO;Portland cement;-15.621271;-47.865104;0.128444444;147.4164444;73.77244444
VOTORANTIM 4 - GO;Portland cement;-17.424241;-49.665323;0.128444444;147.4164444;73.77244444
VOTORANTIM 5 - MT;Portland cement;-15.597011;-55.962873;0.128444444;147.4164444;73.77244444
VOTORANTIM 6 - MT;Portland cement;-14.738307;-56.325399;0.128444444;147.4164444;73.77244444
VOTORANTIM 7 - MS;Portland cement;-19.021274;-57.625928;0.128444444;147.4164444;73.77244444
VOTORANTIM 8 - MS;Portland cement;-20.535113;-54.581787;0.128444444;147.4164444;73.77244444
VOTORANTIM 9 - MG;Portland cement;-20.758502;-46.765161;0.128444444;147.4164444;73.77244444
VOTORANTIM 10 - PR;Portland cement;-25.192213;-49.303973;0.128444444;147.4164444;73.77244444
VOTORANTIM 11 - PA;Portland cement;-1.535232;-48.615486;0.128444444;147.4164444;73.77244444
VOTORANTIM 12 - PE;Portland cement;-0.945743;-47.114490;0.128444444;147.4164444;73.77244444
VOTORANTIM 13 -PE;Portland cement;-7.883831;-40.077160;0.128444444;147.4164444;73.77244444
VOTORANTIM 14 -PE;Portland cement;-7.934352;-34.868044;0.128444444;147.4164444;73.77244444
VOTORANTIM 15 -RS;Portland cement;-31.562696;-53.717756;0.128444444;147.4164444;73.77244444
VOTORANTIM 16 -RS;Portland cement;-29.999305;-51.654191;0.128444444;147.4164444;73.77244444
VOTORANTIM 17 -RS;Portland cement;-29.849124;-51.189419;0.128444444;147.4164444;73.77244444
VOTORANTIM 18 -RS;Portland cement;-31.583267;-53.376706;0.128444444;147.4164444;73.77244444
VOTORANTIM 19 -RJ;Portland cement;-21.980591;-42.358974;0.128444444;147.4164444;73.77244444
VOTORANTIM 20 -RJ;Portland cement;-22.883923;-43.725968;0.128444444;147.4164444;73.77244444
VOTORANTIM 21 - RJ;Portland cement;-22.501560;-44.127541;0.128444444;147.4164444;73.77244444
VOTORANTIM 22 -RO;Portland cement;-8.735670;-63.817820;0.128444444;147.4164444;73.77244444
VOTORANTIM 23 - SC;Portland cement;-28.437942;-48.964934;0.128444444;147.4164444;73.77244444
VOTORANTIM 24 -SC;Portland cement;-28.233396;-48.661437;0.128444444;147.4164444;73.77244444
VOTORANTIM 25 - SC;Portland cement;-26.859714;-48.667429;0.128444444;147.4164444;73.77244444
VOTORANTIM 26- SC;Portland cement;-28.426057;-48.938896;0.128444444;147.4164444;73.77244444
VOTORANTIM 27 - SE;Portland cement;-10.797551;-37.166303;0.128444444;147.4164444;73.77244444
VOTORANTIM 28 - SP;Portland cement;-24.111268;-48.371378;0.128444444;147.4164444;73.77244444
VOTORANTIM 29 - SP;Portland cement;-23.514500;-46.883592;0.128444444;147.4164444;73.77244444
VOTORANTIM 30 - SP;Portland cement;-23.366762;-46.878889;0.128444444;147.4164444;73.77244444
VOTORANTIM 31 - SP;Portland cement;-23.855934;-46.412328;0.128444444;147.4164444;73.77244444
VOTORANTIM 32 - SP;Portland cement;-23.985875;-48.917429;0.128444444;147.4164444;73.77244444
VOTORANTIM 33 - SP;Portland cement;-22.583292;-47.357917;0.128444444;147.4164444;73.77244444
VOTORANTIM 34 - SP;Portland cement;-23.648340;-47.550557;0.128444444;147.4164444;73.77244444
VOTORANTIM 35 - SP;Portland cement;-23.561382;-47.432024;0.128444444;147.4164444;73.77244444
VOTORANTIM 36 - TO;Portland cement;-6.433164;-48.428544;0.128444444;147.4164444;73.77244444
LAFARGE BRASIL S.A 01 - PB;Portland cement;-7.514879;-34.905828;0.132222222;151.7522222;75.94222222
LAFARGE BRASIL S.A 02 - BA;Portland cement;-12.647861;-38.543936;0.132222222;151.7522222;75.94222222
LAFARGE BRASIL S.A 03 - GO;Portland cement;-15.788728;-48.769633;0.132222222;151.7522222;75.94222222
LAFARGE BRASIL S.A 04 - MG;Portland cement;-19.779745;-43.955587;0.132222222;151.7522222;75.94222222
LAFARGE BRASIL S.A 05 - MG;Portland cement;-19.530527;-44.093638;0.132222222;151.7522222;75.94222222
LAFARGE BRASIL S.A 06 - MG;Portland cement;-16.704932;-43.894976;0.132222222;151.7522222;75.94222222
LAFARGE BRASIL S.A 07 - MG;Portland cement;-20.293813;-45.551920;0.132222222;151.7522222;75.94222222
LAFARGE BRASIL S.A 08 - RJ;Portland cement;-21.979968;-42.362822;0.132222222;151.7522222;75.94222222
LAFARGE BRASIL S.A 09 - SP;Portland cement;-23.995618;-48.866156;0.132222222;151.7522222;75.94222222
CIA DE CIMENTOS ITAMBÉ - PR;Portland cement;-25.576212;-49.644689;0.221;253.643;126.932
 CCB-CIMPOR CIMENTOS DO BRASIL LTDA 01 - BA;Portland cement;-14.186072;-41.666985;0.267877436;307.4445093;153.8561934
 CCB-CIMPOR CIMENTOS DO BRASIL LTDA 02 -SP;Portland cement;-24.702021;-48.116842;0.267877436;307.4445093;153.8561934
 CCB-CIMPOR CIMENTOS DO BRASIL LTDA 03 - BA;Portland cement;-10.517069;-40.329912;0.267877436;307.4445093;153.8561934
 CCB-CIMPOR CIMENTOS DO BRASIL LTDA 04 - RS;Portland cement;-31.307315;-54.111791;0.267877436;307.4445093;153.8561934
 CCB-CIMPOR CIMENTOS DO BRASIL LTDA 05 -GO;Portland cement;-16.976296;-49.769378;0.267877436;307.4445093;153.8561934
 CCB-CIMPOR CIMENTOS DO BRASIL LTDA 06 - PB;Portland cement;-7.161428;-34.921599;0.267877436;307.4445093;153.8561934
 CCB-CIMPOR CIMENTOS DO BRASIL LTDA 07 - RS;Portland cement;-29.845837;-51.268496;0.267877436;307.4445093;153.8561934
 CCB-CIMPOR CIMENTOS DO BRASIL LTDA 08 -AL;Portland cement;-9.773040;-36.109813;0.267877436;307.4445093;153.8561934
CIMENTOS NASSAU 01 - PI;Portland cement;-7.080009;-40.468117;0.120888889;138.7448889;69.43288889
CIMENTOS NASSAU 02 -MA;Portland cement;-4.475265;-43.883534;0.120888889;138.7448889;69.43288889
CIMENTOS NASSAU 03 -RN;Portland cement;-5.123838;-37.279412;0.120888889;138.7448889;69.43288889
CIMENTOS NASSAU 03 -PE;Portland cement;-8.011154;-34.909033;0.120888889;138.7448889;69.43288889
CIMENTOS NASSAU 04 -SE;Portland cement;-10.852390;-37.125244;0.120888889;138.7448889;69.43288889
CIMENTOS NASSAU 05 -ES;Portland cement;-20.855907;-41.130535;0.120888889;138.7448889;69.43288889
CIMENTOS NASSAU 06 -CE;Portland cement;-7.298959;-39.303019;0.120888889;138.7448889;69.43288889
CIMENTOS NASSAU 10 -PA;Portland cement;-1.207739;-47.170325;0.120888889;138.7448889;69.43288889
CIMENTOS NASSAU 07 -AM;Portland cement;-3.056088;-59.849599;0.120888889;138.7448889;69.43288889
CIMENTOS NASSAU 08 -PA;Portland cement;-4.267029;-56.007272;0.120888889;138.7448889;69.43288889
CIMENTOS NASSAU 09 -PA;Portland cement;-1.429743;-48.438010;0.120888889;138.7448889;69.43288889
HOLCIM BRASIL S.A. - CIMENTO – CANTAGALO -RJ;Portland cement;-21.977067;-42.286139;0.063142857;72.46942857;36.26628571
HOLCIM BRASIL S.A. - CONCRETO – DIVINÓPOLIS -MG;Portland cement;-20.160727;-44.892032;0.063142857;72.46942857;36.26628571
HOLCIM BRASIL S.A. - CONCRETO – GUARUJÁ -SP;Portland cement;-23.959117;-46.255982;0.063142857;72.46942857;36.26628571
HOLCIM BRASIL S.A. - CONCRETO - JUIZ DE FORA -MG;Portland cement;-21.753143;-43.389390;0.063142857;72.46942857;36.26628571
HOLCIM BRASIL S.A. - AGREGADOS – MAGÉ -RJ;Portland cement;-22.653680;-43.052561;0.063142857;72.46942857;36.26628571
HOLCIM BRASIL S.A. - AGREGADOS – MAIRIPORÃ - SP;Portland cement;-23.336447;-46.586311;0.063142857;72.46942857;36.26628571
HOLCIM BRASIL S.A. - CIMENTO - PEDRO LEOPOLDO -MG;Portland cement;-19.624273;-44.040915;0.063142857;72.46942857;36.26628571
HOLCIM BRASIL S.A. - CONCRETO - POUSO ALEGRE - MG;Portland cement;-22.231076;-45.920249;0.063142857;72.46942857;36.26628571
HOLCIM BRASIL S.A. - CONCRETO - RIBEIRÃO PRETO -SP;Portland cement;-21.178525;-47.868254;0.063142857;72.46942857;36.26628571
HOLCIM BRASIL S.A. - CONCRETO - SÃO JOSÉ DOS CAMPOS -SP;Portland cement;-23.208757;-45.926235;0.063142857;72.46942857;36.26628571
HOLCIM BRASIL S.A. - CONCRETO - SÃO VICENTE -SP;Portland cement;-23.959126;-46.423138;0.063142857;72.46942857;36.26628571
HOLCIM BRASIL S.A. - CIMENTO – VITÓRIA -ES;Portland cement;-20.242077;-40.238906;0.063142857;72.46942857;36.26628571
HOLCIM BRASIL S.A. - AGREGADOS – SOROCABA -SP;Portland cement;-23.484882;-47.468896;0.063142857;72.46942857;36.26628571
HOLCIM BRASIL S.A. - CIMENTO – SOROCABA -SP;Portland cement;-23.475375;-47.486575;0.063142857;72.46942857;36.26628571
CIPLAN CIMENTO 01 -SP ;Portland cement;-21.180156;-47.846477;0.034;39.022;19.528
CIPLAN CIMENTO 02 -MG;Portland cement;-19.727424;-47.957490;0.034;39.022;19.528
CIPLAN CIMENTO 03 -MG;Portland cement;-18.862349;-48.283316;0.034;39.022;19.528
CIPLAN CIMENTO 04 -SP;Portland cement;-16.402601;-48.934383;0.034;39.022;19.528
CIPLAN CIMENTO 04 -GO;Portland cement;-17.740948;-48.637597;0.034;39.022;19.528
CIPLAN CIMENTO 05 -GO;Portland cement;-16.708853;-49.205520;0.034;39.022;19.528
CIPLAN CIMENTO 06 -GO;Portland cement;-16.064671;-47.965549;0.034;39.022;19.528
CIPLAN CIMENTO 07 -MT;Portland cement;-15.654575;-55.992037;0.034;39.022;19.528
CIPLAN CIMENTO 08 -TO;Portland cement;-10.251419;-48.316118;0.034;39.022;19.528
CIPLAN CIMENTO 09 -MA;Portland cement;-2.577543;-44.184681;0.034;39.022;19.528
CIPLAN CIMENTO 10 -CE;Portland cement;-3.821836;-38.534104;0.034;39.022;19.528
INTERCEMENT - (CAUÊ) GRUPO CAMARGO CORRÊA 01 - SP;Portland cement;-24.520263;-48.857340;0.549666667;630.8556667;315.7026667
INTERCEMENT - (CAUÊ) GRUPO CAMARGO CORRÊA 02 - MS;Portland cement;-20.539534;-56.712387;0.549666667;630.8556667;315.7026667
INTERCEMENT - (CAUÊ) GRUPO CAMARGO CORRÊA 03 - MG;Portland cement;-19.646808;-44.039242;0.549666667;630.8556667;315.7026667
INTERCEMENT - (CAUÊ) GRUPO CAMARGO CORRÊA 04 - MG;Portland cement;-19.473333;-42.510661;0.549666667;630.8556667;315.7026667
INTERCEMENT - (CAUÊ) GRUPO CAMARGO CORRÊA 05 -SP;Portland cement;-23.287650;-45.981025;0.549666667;630.8556667;315.7026667
INTERCEMENT - (CAUÊ) GRUPO CAMARGO CORRÊA 06 -MG;Portland cement;-21.194456;-44.937726;0.549666667;630.8556667;315.7026667
CELULOSE IRANI S.A. – 7 -SC;Paper and cellulose;-26.241080;-49.480054;0.008026083;0.898921333;0.453473708
CELULOSE IRANI S.A. – 8 - SC;Paper and cellulose;-26.872293;-51.793133;0.008026083;0.898921333;0.453473708
CELULOSE IRANI S.A. – 11 - RS;Paper and cellulose;-30.200620;-50.343635;0.008026083;0.898921333;0.453473708
FIBRIA – 2 – ES;Paper and cellulose;-19.844403;-40.268891;0.1439625;16.1238;8.13388125
FIBRIA – 3 – SP;Paper and cellulose;-23.371182;-46.026798;0.1439625;16.1238;8.13388125
FIBRIA – 4 – MS;Paper and cellulose;-20.997040;-51.795191;0.1439625;16.1238;8.13388125
FIBRIA - 5 – SP;Paper and cellulose;-24.005014;-48.326613;0.1439625;16.1238;8.13388125
FIBRIA – 6 – RS;Paper and cellulose;-31.771171;-52.458412;0.1439625;16.1238;8.13388125
FIBRIA – 7 – ES;Paper and cellulose;-18.522464;-39.759109;0.1439625;16.1238;8.13388125
FIBRIA – 8 -BA;Paper and cellulose;-17.887091;-39.840772;0.1439625;16.1238;8.13388125
FIBRIA – 9 – MS;Paper and cellulose;-20.897987;-51.757535;0.1439625;16.1238;8.13388125
INTERNATIONAL PAPER – 2 - SP;Paper and cellulose;-22.133874;-47.002021;0.067551667;7.565786667;3.816669167
INTERNATIONAL PAPER – 3 - SP;Paper and cellulose;-21.485416;-47.766701;0.067551667;7.565786667;3.816669167
INTERNATIONAL PAPER – 4 - MS;Paper and cellulose;-20.761102;-51.726300;0.067551667;7.565786667;3.816669167
JARI CELULOSE - PA;Paper and cellulose;-0.924500;-52.432458;0.0975865;10.929688;5.51363725
KLABIN 2 - SP;Paper and cellulose;-22.685867;-47.675489;0.022010206;2.465143059;1.243576632
KLABIN 3 - SP;Paper and cellulose;-23.482352;-48.408956;0.022010206;2.465143059;1.243576632
KLABIN 4 - MG;Paper and cellulose;-19.994185;-44.192549;0.022010206;2.465143059;1.243576632
KLABIN 5 - SC;Paper and cellulose;-27.546573;-50.364285;0.022010206;2.465143059;1.243576632
KLABIN 6 - BA;Paper and cellulose;-12.293665;-38.965325;0.022010206;2.465143059;1.243576632
KLABIN 7 - PE;Paper and cellulose;-7.588721;-35.006407;0.022010206;2.465143059;1.243576632
KLABIN 8 - RJ;Paper and cellulose;-22.588770;-43.016729;0.022010206;2.465143059;1.243576632
KLABIN 9 - SC;Paper and cellulose;-26.894836;-48.710662;0.022010206;2.465143059;1.243576632
KLABIN 10 - SP;Paper and cellulose;-23.225062;-47.026950;0.022010206;2.465143059;1.243576632
KLABIN 11 - SP;Paper and cellulose;-23.172452;-46.929145;0.022010206;2.465143059;1.243576632
KLABIN 12 - SC;Paper and cellulose;-27.802817;-50.362837;0.022010206;2.465143059;1.243576632
KLABIN 13 - SC;Paper and cellulose;-27.751155;-50.337534;0.022010206;2.465143059;1.243576632
KLABIN 14 - PR;Paper and cellulose;-24.306558;-50.610461;0.022010206;2.465143059;1.243576632
KLABIN 15 - SC;Paper and cellulose;-27.512968;-50.116357;0.022010206;2.465143059;1.243576632
KLABIN 16 - SP;Paper and cellulose;-22.687395;-47.674515;0.022010206;2.465143059;1.243576632
KLABIN 17 - MG;Paper and cellulose;-20.421737;-42.899126;0.022010206;2.465143059;1.243576632
KLABIN 18 - RS;Paper and cellulose;-29.782408;-51.119724;0.022010206;2.465143059;1.243576632
LWARCEL - SP;Paper and cellulose;-22.570501;-48.776750;0.05575275;6.244308;3.150030375
MELHORAMENTOS PAPÉIS - SP;Paper and cellulose;-23.539539;-46.270172;0.016356375;1.831914;0.924135188
MELHORAMENTOS PAPÉIS - SP;Paper and cellulose;-23.370477;-46.759478;0.016356375;1.831914;0.924135188
NOBRECEL - SP;Paper and cellulose;-22.899835;-45.349155;0.0154485;1.730232;0.87284025
PRIMO TEDESCO - SC;Paper and cellulose;-26.782639;-51.044326;0.007410625;0.82999;0.418700313
PRIMO TEDESCO - RS;Paper and cellulose;-29.961783;-51.189878;0.007410625;0.82999;0.418700313
SANTHER  -SP;Paper and cellulose;-23.533242;-46.547686;0.0125;1.4;0.70625
SANTHER  - MG;Paper and cellulose;-18.716729;-42.238401;0.0125;1.4;0.70625
SANTHER - RS;Paper and cellulose;-30.167960;-51.333678;0.0125;1.4;0.70625
SANTHER - SP;Paper and cellulose;-22.902531;-46.546847;0.0125;1.4;0.70625
SUZANO - SP;Paper and cellulose;-23.520544;-46.295746;0.075725857;8.481296;4.278510929
SUZANO - SP;Paper and cellulose;-23.496345;-46.330388;0.075725857;8.481296;4.278510929
SUZANO - SP;Paper and cellulose;-23.663960;-46.850741;0.075725857;8.481296;4.278510929
SUZANO - SP;Paper and cellulose;-22.568770;-47.404516;0.075725857;8.481296;4.278510929
SUZANO - BA;Paper and cellulose;-12.866852;-38.383371;0.075725857;8.481296;4.278510929
SUZANO - BA;Paper and cellulose;-18.039745;-39.924039;0.075725857;8.481296;4.278510929
SUZANO - MA;Paper and cellulose;-5.545537;-47.468471;0.075725857;8.481296;4.278510929
CENIBRA -MG;Paper and cellulose;-19.220002;-42.482508;0.041374357;4.633928;2.337651179
CENIBRA -MG;Paper and cellulose;-19.222677;-42.476795;0.041374357;4.633928;2.337651179
CENIBRA - MG;Paper and cellulose;-19.320151;-42.391747;0.041374357;4.633928;2.337651179
CENIBRA - MG;Paper and cellulose;-19.319585;-42.368663;0.041374357;4.633928;2.337651179
CENIBRA -MG;Paper and cellulose;-19.419312;-42.406586;0.041374357;4.633928;2.337651179
CENIBRA - MG;Paper and cellulose;-19.768797;-43.028113;0.041374357;4.633928;2.337651179
CENIBRA - ES;Paper and cellulose;-19.831908;-40.063578;0.041374357;4.633928;2.337651179
GRUPO ORSA - SP;Paper and cellulose;-23.508624;-46.871881;0.027406;3.069472;1.548439
IGUAÇU -PR;Paper and cellulose;-25.532220;-49.203850;0.007049;0.789488;0.3982685
IGUAÇU -PR;Paper and cellulose;-24.509953;-49.952286;0.007049;0.789488;0.3982685
IGUAÇU -SC;Paper and cellulose;-27.398392;-51.238227;0.007049;0.789488;0.3982685
IGUAÇU -SC;Paper and cellulose;-27.168166;-50.797874;0.007049;0.789488;0.3982685
NORSKE SKOG PISA -PR;Paper and cellulose;-24.282425;-49.736546;0.043452;4.866624;2.455038
STORA ENSO - SP;Paper and cellulose;-23.562232;-46.661033;0.0206025;2.30748;1.16404125
VERACEL - BA;Paper and cellulose;-16.371053;-39.588851;0.1375445;15.404984;7.77126425
ALTA MOGIANA;Bagasse TPP;-20.567944;-47.868641;0.13824;2.02176;1.08
BARRALCOOL;Bagasse TPP;-15.033815;-57.214277;0.055296;0.808704;0.432
BATATAIS;Bagasse TPP;-20.745982;-47.569336;0.00718848;0.10513152;0.05616
CAETÉ;Bagasse TPP;-9.776442;-36.086844;0.06598656;0.96505344;0.51552
COLOMBO ARIRANHA;Bagasse TPP;-21.213352;-48.842033;0.1944576;2.8439424;1.5192
CORONA;Bagasse TPP;-21.364469;-48.238975;0.0331776;0.4852224;0.2592
ESTER;Bagasse TPP;-22.657480;-47.211152;0.08552448;1.25079552;0.66816
CENTRAL ENERGÉTICA RIBEIRÃO PRETO (ANTIGA GALO BRAVO);Bagasse TPP;-21.141021;-47.878869;0.0165888;0.2426112;0.1296
GALVANI;Bagasse TPP;-22.758781;-47.155066;0.0211968;0.3100032;0.1656
IRACEMA;Bagasse TPP;-22.586025;-47.529168;0.0258048;0.3773952;0.2016
VIRGOLINO DE OLIVEIRA - ITAPIRA;Bagasse TPP;-22.411839;-46.808829;0.01069056;0.15634944;0.08352
JARDEST;Bagasse TPP;-21.032484;-47.775844;0.0147456;0.2156544;0.1152
JUNQUEIRA;Bagasse TPP;-20.048841;-47.748235;0.01327104;0.19408896;0.10368
MARACAÍ;Bagasse TPP;-22.575942;-50.656559;0.086298624;1.262117376;0.674208
MB;Bagasse TPP;-20.729511;-48.055077;0.03022848;0.44209152;0.23616
NARDINI;Bagasse TPP;-21.184680;-48.654292;0.0995328;1.4556672;0.7776
SANTA CRUZ AB (ANTIGA OMETTO);Bagasse TPP;-21.754836;-48.078402;0.15925248;2.32906752;1.24416
USINA DA PEDRA;Bagasse TPP;-21.241122;-47.566889;0.064512;0.943488;0.504
RAFARD;Bagasse TPP;-23.009110;-47.532166;0.09216;1.34784;0.72
UNIVALEM;Bagasse TPP;-23.009110;-47.532166;0.0147456;0.2156544;0.1152
PUMATY;Bagasse TPP;-8.627504;-35.528606;0.014819328;0.216732672;0.115776
VALE DO ROSÁRIO;Bagasse TPP;-20.740942;-48.055163;0.1787904;2.6148096;1.3968
VIRALCOOL;Bagasse TPP;-21.049411;-48.262212;0.036864;0.539136;0.288
SÃO JOÃO;Bagasse TPP;-22.428728;-47.359755;0.0221184;0.3234816;0.1728
SÃO JOSÉ;Bagasse TPP;-22.491557;-48.782191;0.156312576;2.286071424;1.221192
SÃO JOSÉ;Bagasse TPP;-22.860862;-47.624307;0.00884736;0.12939264;0.06912
SÃO LUIZ;Bagasse TPP;-22.026160;-47.429182;0.12976128;1.89775872;1.01376
SÃO MARTINHO;Bagasse TPP;-21.320081;-48.120490;0.1345536;1.9678464;1.0512
BARRA GRANDE DE LENÇÓIS;Bagasse TPP;-22.627929;-48.752271;0.11593728;1.69558272;0.90576
LDC BIOENERGIA LEME (ANTIGA COINBRA - CRESCIUMAL);Bagasse TPP;-22.205258;-47.386937;0.07299072;1.06748928;0.57024
J PILON;Bagasse TPP;-23.171224;-47.746025;0.00700416;0.10243584;0.05472
SÃO FRANCISCO;Bagasse TPP;-21.108655;-48.078612;0.04644864;0.67931136;0.36288
LUCÉLIA;Bagasse TPP;-21.724491;-51.021143;0.02893824;0.42322176;0.22608
BORTOLO CAROLO;Bagasse TPP;-21.009087;-47.993845;0.0147456;0.2156544;0.1152
FURLAN;Bagasse TPP;-22.763612;-47.411725;0.00663552;0.09704448;0.05184
SANTA ADÉLIA;Bagasse TPP;-21.252346;-48.325677;0.0774144;1.1321856;0.6048
RUETTE;Bagasse TPP;-21.044503;-48.720099;0.0516096;0.7547904;0.4032
IPIRANGA FILIAL DESCALVADO;Bagasse TPP;-21.910594;-47.617150;0.00557568;0.08154432;0.04356
IPIRANGA - MOCOCA;Bagasse TPP;-21.467198;-47.002057;0.00774144;0.11321856;0.06048
SÃO MANOEL;Bagasse TPP;-22.742186;-48.570088;0.02727936;0.39896064;0.21312
ALBERTINA;Bagasse TPP;-21.147299;-47.989209;0.0078336;0.1145664;0.0612
SANTA ELISA - UNIDADE II;Bagasse TPP;-21.151098;-48.007881;0.0073728;0.1078272;0.0576
PAINEIRAS;Bagasse TPP;-21.011633;-40.830280;0.00589824;0.08626176;0.04608
SÃO JOÃO DA BOA VISTA;Bagasse TPP;-21.974787;-46.793732;0.129024;1.886976;1.008
UNIALCO;Bagasse TPP;-21.264410;-50.636443;0.00663552;0.09704448;0.05184
SANTA CÂNDIDA;Bagasse TPP;-22.154430;-48.519573;0.0534528;0.7817472;0.4176
IBITIÚVA BIOENERGÉTICA (ANTIGA DESTILARIA ANDRADE);Bagasse TPP;-21.051442;-48.264082;0.0608256;0.8895744;0.4752
MANDU;Bagasse TPP;-20.324892;-48.283319;0.165888;2.426112;1.296
GUARANI - CRUZ ALTA;Bagasse TPP;-20.744737;-48.909426;0.11943936;1.74680064;0.93312
SÃO JOSÉ DA ESTIVA;Bagasse TPP;-21.486870;-49.185911;0.078336;1.145664;0.612
PANTANAL;Bagasse TPP;-15.934350;-54.962518;0.009216;0.134784;0.072
JACIARA;Bagasse TPP;-15.976043;-54.950845;0.00516096;0.07547904;0.04032
BAZAN;Bagasse TPP;-21.007754;-48.035624;0.01880064;0.27495936;0.14688
SÃO DOMINGOS;Bagasse TPP;-21.102280;-48.926866;0.0221184;0.3234816;0.1728
MOEMA;Bagasse TPP;-20.254304;-49.292440;0.0442368;0.6469632;0.3456
DIANA;Bagasse TPP;-21.474105;-49.934966;0.005295514;0.077446886;0.0413712
ÁGUA BONITA;Bagasse TPP;-22.736898;-50.580984;0.0313344;0.4582656;0.2448
DESTILARIA GUARICANGA;Bagasse TPP;-22.106087;-49.435508;0.00294912;0.04313088;0.02304
DESTILARIA MALOSSO;Bagasse TPP;-21.565808;-48.814681;0.0073728;0.1078272;0.0576
CORACI;Bagasse TPP;-22.739705;-49.732398;0.002550989;0.037308211;0.0199296
TROMBINI;Bagasse TPP;-27.038020;-50.909358;0.008976384;0.131279616;0.070128
BENÁLCOOL;Bagasse TPP;-21.276938;-50.819852;0.00774144;0.11321856;0.06048
SANTA LÚCIA;Bagasse TPP;-22.394696;-47.389969;0.00811008;0.11860992;0.06336
ALCIDIA;Bagasse TPP;-22.538851;-52.190831;0.07022592;1.02705408;0.54864
BELLÃO & SCHIAVON;Bagasse TPP;-21.812253;-47.235488;0.00119808;0.01752192;0.00936
PARAÍSO;Bagasse TPP;-22.265142;-48.154094;0.01419264;0.20756736;0.11088
BELA VISTA;Bagasse TPP;-21.028625;-48.053734;0.01806336;0.26417664;0.14112
ITAIQUARA;Bagasse TPP;-21.455312;-46.750967;0.00589824;0.08626176;0.04608
ÁGUA LIMPA;Bagasse TPP;-20.780958;-49.728315;0.005087232;0.074400768;0.039744
SANTA ROSA;Bagasse TPP;-23.259627;-47.639170;0.005087232;0.074400768;0.039744
SANTA FÉ;Bagasse TPP;-21.768898;-48.557412;0.01179648;0.17252352;0.09216
LWARCEL;Bagasse TPP;-22.546772;-48.814894;0.0073728;0.1078272;0.0576
SANTO ANTÔNIO;Bagasse TPP;-22.659797;-47.643290;0.002138112;0.031269888;0.016704
FLORAPLAC;Bagasse TPP;-2.963406;-47.375360;0.002304;0.033696;0.018
DELOS;Bagasse TPP;-21.161521;-47.988729;0.00129024;0.01886976;0.01008
DELLA COLETTA;Bagasse TPP;-22.081042;-48.719312;0.0073728;0.1078272;0.0576
BARRA;Bagasse TPP;-22.478612;-48.545333;0.02912256;0.42591744;0.22752
BRANCO PERES;Bagasse TPP;-21.688810;-51.046027;0.007335936;0.107288064;0.057312
PEDERNEIRAS;Bagasse TPP;-23.122203;-47.718601;0.00442368;0.06469632;0.03456
GASA;Bagasse TPP;-20.931918;-51.379115;0.1511424;2.2104576;1.1808
URBANO JARAGUÁ;Bagasse TPP;-26.508364;-49.109841;0.0055296;0.0808704;0.0432
COCAL;Bagasse TPP;-22.393625;-50.591643;0.05197824;0.76018176;0.40608
DULCINI;Bagasse TPP;-22.602154;-46.935960;0.003412132;0.049902428;0.02665728
DACAL;Bagasse TPP;-21.787154;-50.810506;0.00811008;0.11860992;0.06336
GUARANI;Bagasse TPP;-20.821616;-48.821199;0.01732608;0.25339392;0.13536
URUBA;Bagasse TPP;-9.500704;-36.001414;0.018432;0.269568;0.144
COOCAROL;Bagasse TPP;-23.404581;-52.752034;0.0073728;0.1078272;0.0576
CATANDUVA (ANTIGA CERRADINHO);Bagasse TPP;-21.135240;-48.976821;0.13824;2.02176;1.08
BOM RETIRO;Bagasse TPP;-22.978864;-47.506309;0.00663552;0.09704448;0.05184
DESTIL;Bagasse TPP;-21.256114;-49.139955;0.00626688;0.09165312;0.04896
FANY;Bagasse TPP;-22.198420;-51.291532;0.00221184;0.03234816;0.01728
PIONEIROS;Bagasse TPP;-20.684541;-50.917174;0.0774144;1.1321856;0.6048
SOBAR;Bagasse TPP;-22.686864;-49.419153;0.007122125;0.104161075;0.0556416
ALCOMIRA;Bagasse TPP;-21.121005;-51.090413;0.00442368;0.06469632;0.03456
LONDRA;Bagasse TPP;-23.410036;-49.105375;0.007151616;0.104592384;0.055872
DECASA;Bagasse TPP;-22.816385;-50.061069;0.0608256;0.8895744;0.4752
GUAXUMA;Bagasse TPP;-10.119481;-36.165209;0.026379878;0.385805722;0.2060928
FERRARI;Bagasse TPP;-21.983808;-47.430962;0.1281024;1.8734976;1.0008
GENERALCO;Bagasse TPP;-20.640629;-50.363694;0.00700416;0.10243584;0.05472
USINA SÃO LUIZ;Bagasse TPP;-22.971046;-49.909639;0.0294912;0.4313088;0.2304
PANORÂMICA;Bagasse TPP;-23.420472;-49.097307;0.00681984;0.09974016;0.05328
CASA DE FORÇA;Bagasse TPP;-20.272784;-50.268888;0.007225344;0.105670656;0.056448
NOVA TAMOIO;Bagasse TPP;-21.749967;-48.180615;0.00663552;0.09704448;0.05184
DOIS CÓRREGOS;Bagasse TPP;-22.359716;-48.392853;0.00663552;0.09704448;0.05184
DESTILARIA MELHORAMENTOS;Bagasse TPP;-23.633356;-52.462851;0.01179648;0.17252352;0.09216
DESTILARIA PARAGUAÇU;Bagasse TPP;-22.431435;-50.584455;0.00663552;0.09704448;0.05184
CATANDUVA;Bagasse TPP;-21.193217;-48.784180;0.0165888;0.2426112;0.1296
COLORADO;Bagasse TPP;-20.311752;-48.298516;0.097247232;1.422240768;0.759744
NOVA AMÉRICA;Bagasse TPP;-22.745071;-50.600983;0.0442368;0.6469632;0.3456
EQUIPAV;Bagasse TPP;-21.559317;-49.868596;0.10764288;1.57427712;0.84096
IBIRÁ;Bagasse TPP;-21.492994;-47.390793;0.014658048;0.214373952;0.114516
SIDROLÂNDIA (ANTIGA SANTA OLINDA);Bagasse TPP;-20.909544;-54.953320;0.009879552;0.144488448;0.077184
COOPERNAVI;Bagasse TPP;-23.038283;-54.184956;0.0221184;0.3234816;0.1728
MARACAJÚ;Bagasse TPP;-21.612245;-55.181926;0.01363968;0.19948032;0.10656
PASSA TEMPO;Bagasse TPP;-21.782953;-54.530882;0.13602816;1.98941184;1.06272
JALLES MACHADO;Bagasse TPP;-15.337953;-49.106689;0.09216;1.34784;0.72
GOIANÉSIA;Bagasse TPP;-15.302771;-49.128490;0.01345536;0.19678464;0.10512
SANTA HELENA AÇÚCAR E ÁLCOOL;Bagasse TPP;-17.824745;-50.582152;0.00811008;0.11860992;0.06336
VALE DO VERDÃO;Bagasse TPP;-17.797797;-50.331985;0.04313088;0.63078912;0.33696
GOIASA;Bagasse TPP;-18.024206;-49.364596;0.085745664;1.254030336;0.669888
COPRODIA;Bagasse TPP;-13.678132;-57.890803;0.0110592;0.1617408;0.0864
ITAMARATI;Bagasse TPP;-14.769670;-57.282329;0.06912;1.01088;0.54
SANTA TEREZINHA PARANACITY;Bagasse TPP;-22.937190;-52.152406;0.0847872;1.2400128;0.6624
SANTA TEREZINHA (IVATÉ);Bagasse TPP;-23.404349;-53.378860;0.0165888;0.2426112;0.1296
PEROBÁLCOOL;Bagasse TPP;-23.888840;-53.405361;0.00442368;0.06469632;0.03456
VALE DO IVAÍ;Bagasse TPP;-23.861497;-51.853163;0.03391488;0.49600512;0.26496
BIO COOPCANA;Bagasse TPP;-23.306438;-52.479983;0.09216;1.34784;0.72
SANTA TEREZINHA;Bagasse TPP;-23.748730;-52.880378;0.0930816;1.3613184;0.7272
SABARÁLCOOL;Bagasse TPP;-23.807811;-52.253667;0.008045568;0.117666432;0.062856
IGUATEMI (ANTIGA SANTA TEREZINHA - IGUATEMI);Bagasse TPP;-23.401766;-51.903616;0.00626688;0.09165312;0.04896
JACAREZINHO;Bagasse TPP;-23.134816;-49.939865;0.00847872;0.12400128;0.06624
DESTILARIA DE ÁLCOOL IBAITI;Bagasse TPP;-23.817147;-50.179785;0.00663552;0.09704448;0.05184
DACALDA;Bagasse TPP;-23.140795;-49.973382;0.00405504;0.05930496;0.03168
COFERCATU;Bagasse TPP;-22.873829;-51.411299;0.0073728;0.1078272;0.0576
COOPERVAL;Bagasse TPP;-23.598322;-51.657237;0.00663552;0.09704448;0.05184
SÃO FRANCISCO;Bagasse TPP;-23.041734;-47.359096;0.00774144;0.11321856;0.06048
SANTA RITA;Bagasse TPP;-21.693346;-47.490832;0.01234944;0.18061056;0.09648
TRIÁLCOOL;Bagasse TPP;-18.730409;-49.203488;0.027648;0.404352;0.216
USINA DA SERRA;Bagasse TPP;-21.950352;-47.996571;0.027648;0.404352;0.216
SANTA HELENA;Bagasse TPP;-22.837436;-47.600093;0.00884736;0.12939264;0.06912
MUMBUCA;Bagasse TPP;-22.626069;-50.201498;0.000928973;0.013586227;0.0072576
DELTA;Bagasse TPP;-19.973386;-47.768499;0.058752;0.859248;0.459
COSTA PINTO;Bagasse TPP;-22.718278;-47.599516;0.13824;2.02176;1.08
SANTA ELISA - UNIDADE I;Bagasse TPP;-21.134084;-47.971177;0.1069056;1.5634944;0.8352
MORENO;Bagasse TPP;-21.548690;-47.702446;0.010174464;0.148801536;0.079488
CITROSUCO;Bagasse TPP;-21.633410;-48.337381;0.0129024;0.1886976;0.1008
CLEALCO;Bagasse TPP;-21.561272;-50.452938;0.02064384;0.30191616;0.16128
ALCOAZUL;Bagasse TPP;-21.185822;-50.467029;0.01363968;0.19948032;0.10656
QUATÁ;Bagasse TPP;-22.236973;-50.707809;0.119808;1.752192;0.936
ZANIN;Bagasse TPP;-21.836995;-48.150746;0.0294912;0.4313088;0.2304
COINBRA - FRUTESP;Bagasse TPP;-20.933129;-48.484139;0.009216;0.134784;0.072
SANTA MARIA DE LENÇÓIS;Bagasse TPP;-22.570551;-48.815666;0.005603328;0.081948672;0.043776
SANTO ANTÔNIO;Bagasse TPP;-21.142490;-48.010702;0.0423936;0.6200064;0.3312
UFA;Bagasse TPP;-22.160442;-51.374044;0.04644864;0.67931136;0.36288
UJU;Bagasse TPP;-22.850749;-51.973415;0.055296;0.808704;0.432
JB;Bagasse TPP;-8.115920;-35.264315;0.06119424;0.89496576;0.47808
SANTA ISABEL;Bagasse TPP;-21.480586;-49.223752;0.0847872;1.2400128;0.6624
SANTA CLARA;Bagasse TPP;-21.255799;-48.345049;0.000556646;0.008140954;0.0043488
SANTA HERMÍNIA;Bagasse TPP;-22.810175;-50.069052;0.00221184;0.03234816;0.01728
CEVASA;Bagasse TPP;-20.630383;-47.287820;0.0995328;1.4556672;0.7776
COOPERFRIGO;Bagasse TPP;-21.562310;-49.851773;0.0073728;0.1078272;0.0576
DESTIVALE;Bagasse TPP;-21.174617;-50.447803;0.009216;0.134784;0.072
GRIZZO;Bagasse TPP;-22.335044;-48.547298;0.003627418;0.053050982;0.0283392
VISTA ALEGRE;Bagasse TPP;-23.569946;-48.016382;0.064512;0.943488;0.504
CAMPO FLORIDO;Bagasse TPP;-19.760626;-48.574949;0.055296;0.808704;0.432
CORURIPE ITURAMA;Bagasse TPP;-19.717810;-50.192989;0.0442368;0.6469632;0.3456
CACHOEIRA;Bagasse TPP;-9.612216;-35.715091;0.01363968;0.19948032;0.10656
ARALCO;Bagasse TPP;-20.938333;-50.496689;0.00884736;0.12939264;0.06912
JAPUNGU;Bagasse TPP;-7.205941;-34.849883;0.03096576;0.45287424;0.24192
ITAENGA;Bagasse TPP;-7.933856;-35.287967;0.0866304;1.2669696;0.6768
VOLTA GRANDE;Bagasse TPP;-19.917887;-48.367224;0.101261722;1.480952678;0.7911072
MARITUBA;Bagasse TPP;-10.132662;-36.650397;0.0377856;0.5526144;0.2952
SERRA GRANDE;Bagasse TPP;-9.011972;-36.057302;0.03170304;0.46365696;0.24768
CUCAÚ;Bagasse TPP;-8.677323;-35.159524;0.02322432;0.33965568;0.18144
SUMAÚMA;Bagasse TPP;-9.755077;-35.840890;0.0073728;0.1078272;0.0576
PAÍSA;Bagasse TPP;-10.274169;-36.543303;0.00884736;0.12939264;0.06912
CAPRICHO;Bagasse TPP;-9.397901;-36.145578;0.00442368;0.06469632;0.03456
LAGINHA-MATRIX;Bagasse TPP;-9.177042;-36.014828;0.00912384;0.13343616;0.07128
GAMELEIRA;Bagasse TPP;-10.639871;-51.564187;0.003745382;0.054776218;0.0292608
BAÍA FORMOSA;Bagasse TPP;-6.373506;-35.008718;0.073728;1.078272;0.576
TRAPICHE;Bagasse TPP;-8.594271;-35.109934;0.0479232;0.7008768;0.3744
ESTIVAS;Bagasse TPP;-6.193552;-35.162355;0.0313344;0.4582656;0.2448
CENTRAL OLHO D ÁGUA;Bagasse TPP;-7.406727;-35.275149;0.00774144;0.11321856;0.06048
UNIÃO E INDÚSTRIA;Bagasse TPP;-8.329041;-35.352427;0.00847872;0.12400128;0.06624
AGROVALE;Bagasse TPP;-9.463096;-40.483824;0.0258048;0.3773952;0.2016
IPOJUCA;Bagasse TPP;-8.395756;-35.059020;0.01695744;0.24800256;0.13248
JITITUBA SANTO ANTÔNIO;Bagasse TPP;-9.308071;-35.559876;0.05050368;0.73861632;0.39456
UNA AÇÚCAR E ENERGIA;Bagasse TPP;-8.757629;-35.113000;0.0055296;0.0808704;0.0432
SINIMBU;Bagasse TPP;-9.777575;-36.104438;0.0331776;0.4852224;0.2592
ARTIVINCO (ANTIGA RIO PARDO);Bagasse TPP;-21.493892;-47.390321;0.0082944;0.1213056;0.0648
PITANGUEIRAS;Bagasse TPP;-21.000597;-48.207559;0.04608;0.67392;0.36
TERMOCANA;Bagasse TPP;-23.313969;-52.475982;0.01511424;0.22104576;0.11808
DIAMANTE;Bagasse TPP;-22.254359;-48.554851;0.0129024;0.1886976;0.1008
SANTA TERESA;Bagasse TPP;-7.559237;-35.021114;0.03723264;0.54452736;0.29088
VALE DO PARANAÍBA;Bagasse TPP;-18.689223;-49.561962;0.009216;0.134784;0.072
GIASA II;Bagasse TPP;-7.400483;-35.095411;0.055296;0.808704;0.432
SÃO JOSÉ COLINA;Bagasse TPP;-20.706936;-48.527504;0.1529856;2.2374144;1.1952
LASA;Bagasse TPP;-19.374081;-40.062541;0.00589824;0.08626176;0.04608
SÃO JOSÉ;Bagasse TPP;-7.839948;-34.900929;0.047038464;0.687937536;0.367488
SANTO ÂNGELO;Bagasse TPP;-19.912785;-48.690355;0.073728;1.078272;0.576
WD;Bagasse TPP;-17.731139;-46.171271;0.012091392;0.176836608;0.094464
IPAUSSU;Bagasse TPP;-23.034435;-49.633445;0.0110592;0.1617408;0.0864
J L G;Bagasse TPP;-21.516709;-48.392901;0.00294912;0.04313088;0.02304
CANAÃ;Bagasse TPP;-22.407712;-50.579133;0.055296;0.808704;0.432
SERESTA;Bagasse TPP;-9.902535;-36.357484;0.0175104;0.2560896;0.1368
USACIGA;Bagasse TPP;-23.369214;-52.931285;0.08957952;1.31010048;0.69984
DASA;Bagasse TPP;-17.799245;-40.251003;0.00774144;0.11321856;0.06048
ALCON;Bagasse TPP;-18.572788;-39.735087;0.02064384;0.30191616;0.16128
IOLANDO LEITE;Bagasse TPP;-10.505835;-37.053074;0.0147456;0.2156544;0.1152
COOPER-RUBI;Bagasse TPP;-15.167025;-49.797647;0.00442368;0.06469632;0.03456
NOVA GERAÇÃO;Bagasse TPP;-17.039590;-50.149597;0.01142784;0.16713216;0.08928
CORURIPE;Bagasse TPP;-10.130596;-36.174135;0.0294912;0.4313088;0.2304
CRV;Bagasse TPP;-15.356253;-49.695175;0.0073728;0.1078272;0.0576
COINBRA - FRUTESP;Bagasse TPP;-21.606759;-48.361414;0.0147456;0.2156544;0.1152
LAGO AZUL;Bagasse TPP;-17.730060;-48.187500;0.0036864;0.0539136;0.0288
ELDORADO;Bagasse TPP;-21.788293;-54.533714;0.046115021;0.674432179;0.3602736
MÜLLER DESTILARIA;Bagasse TPP;-21.844942;-47.457573;0.004018176;0.058765824;0.031392
FRONTEIRA;Bagasse TPP;-20.292105;-49.202398;0.00479232;0.07008768;0.03744
COCAMAR MARINGÁ;Bagasse TPP;-23.376793;-51.909967;0.0239616;0.3504384;0.1872
SÃO TOMÉ;Bagasse TPP;-23.538115;-52.591992;0.0073728;0.1078272;0.0576
FARTURA;Bagasse TPP;-21.192154;-49.582546;0.07262208;1.06209792;0.56736
PETRIBU;Bagasse TPP;-7.926291;-35.295526;0.0672768;0.9839232;0.5256
RIBEIRÃO;Bagasse TPP;-8.512385;-35.370441;0.01179648;0.17252352;0.09216
LIMEIRA DO OESTE;Bagasse TPP;-19.547649;-50.583249;0.009216;0.134784;0.072
QUIRINÓPOLIS;Bagasse TPP;-18.464344;-50.459554;0.147456;2.156544;1.152
VERTENTE;Bagasse TPP;-20.490354;-48.936114;0.0976896;1.4287104;0.7632
FRUTAL;Bagasse TPP;-20.026119;-48.884738;0.029660774;0.433788826;0.2317248
OUROESTE;Bagasse TPP;-20.006831;-50.365880;0.0221184;0.3234816;0.1728
ALCOOLVALE;Bagasse TPP;-20.053653;-51.111467;0.00774144;0.11321856;0.06048
TRIUNFO;Bagasse TPP;-9.631763;-36.199579;0.0258048;0.3773952;0.2016
USINA BERTOLO AÇÚCAR E ÁLCOOL;Bagasse TPP;-21.087817;-48.653921;0.00700416;0.10243584;0.05472
CERBA;Bagasse TPP;-22.721444;-47.597113;0.000663552;0.009704448;0.005184
PEDROSA;Bagasse TPP;-8.471329;-35.540327;0.00811008;0.11860992;0.06336
INTERLAGOS;Bagasse TPP;-20.626738;-51.085484;0.073728;1.078272;0.576
BEM BRASIL;Bagasse TPP;-19.632869;-46.976761;0.0039168;0.0572832;0.0306
BURITI;Bagasse TPP;-20.182455;-47.716855;0.009216;0.134784;0.072
CÓRREGO AZUL;Bagasse TPP;-21.560458;-49.868082;0.000958464;0.014017536;0.007488
ITAPAGIPE;Bagasse TPP;-19.899064;-49.357223;0.0110592;0.1617408;0.0864
CEM (ANTIGA CAMEN);Bagasse TPP;-17.734926;-49.135929;0.0221184;0.3234816;0.1728
CENTRO OESTE IGUATEMI;Bagasse TPP;-23.469070;-54.184301;0.0073728;0.1078272;0.0576
CITROVITA CATANDUVA;Bagasse TPP;-21.124940;-48.961370;0.036539597;0.534391603;0.2854656
UNIDADE SANTO INÁCIO - USI;Bagasse TPP;-22.692087;-51.784801;0.129024;1.886976;1.008
BOA VISTA;Bagasse TPP;-18.444072;-50.430114;0.147456;2.156544;1.152
ENERGÉTICA SANTA HELENA;Bagasse TPP;-22.275437;-53.368272;0.00589824;0.08626176;0.04608
SALI;Bagasse TPP;-9.553958;-35.741719;0.01824768;0.26687232;0.14256
VERÍSSIMO;Bagasse TPP;-19.669562;-48.308466;0.009216;0.134784;0.072
CARNEIRINHO;Bagasse TPP;-19.699103;-50.677420;0.0442368;0.6469632;0.3456
SAFI;Bagasse TPP;-21.475473;-54.376811;0.008552448;0.125079552;0.066816
TGN;Bagasse TPP;-23.037183;-49.146485;0.00221184;0.03234816;0.01728
DESTILARIA PORTO ALEGRE;Bagasse TPP;-8.912566;-35.725861;0.00442368;0.06469632;0.03456
IACANGA;Bagasse TPP;-21.899014;-49.030111;0.0718848;1.0513152;0.5616
PIONEIROS II;Bagasse TPP;-20.684771;-50.923053;0.064512;0.943488;0.504
NOVA MORENO;Bagasse TPP;-20.760631;-49.698604;0.028576973;0.417938227;0.2232576
POTIRENDABA (ANTIGA CERRADINHO POTIRENDABA);Bagasse TPP;-21.048518;-49.360706;0.07409664;1.08366336;0.57888
PAU D´ALHO;Bagasse TPP;-22.813705;-50.059521;0.007667712;0.112140288;0.059904
USINA BONFIM;Bagasse TPP;-21.347427;-48.225510;0.2045952;2.9922048;1.5984
JUNCO NOVO;Bagasse TPP;-10.505711;-37.053135;0.00221184;0.03234816;0.01728
ANGÉLICA;Bagasse TPP;-22.167133;-53.745692;0.1769472;2.5878528;1.3824
USINA VALE;Bagasse TPP;-20.615896;-49.300069;0.00811008;0.11860992;0.06336
SÃO JOSÉ DO PINHEIRO;Bagasse TPP;-10.812349;-37.170040;0.02709504;0.39626496;0.21168
USINA MONTE ALEGRE;Bagasse TPP;-21.311929;-46.364313;0.0340992;0.4987008;0.2664
CORURIPE ENERGÉTICA - FILIAL CAMPO FLORIDO;Bagasse TPP;-19.767047;-48.582931;0.055296;0.808704;0.432
CERRADÃO;Bagasse TPP;-20.016696;-48.952405;0.0995328;1.4556672;0.7776
COCAL II;Bagasse TPP;-22.395095;-51.520753;0.147456;2.156544;1.152
PIRAPAMA;Bagasse TPP;-8.112096;-35.286631;0.04608;0.67392;0.36
LDC BIOENERGIA LAGOA DA PRATA (ANTIGA LOUIS DREYFUS LAGOA DA PRATA);Bagasse TPP;-20.018989;-45.514258;0.156672;2.291328;1.224
LDC BIOENERGIA RIO BRILHANTE (ANTIGA LOUIS DREYFUS RIO BRILHANTE);Bagasse TPP;-21.787157;-54.528522;0.165888;2.426112;1.296
TOTAL;Bagasse TPP;-20.014332;-45.955029;0.04608;0.67392;0.36
SÃO JUDAS TADEU;Bagasse TPP;-15.341599;-43.683926;0.1032192;1.5095808;0.8064
EQUIPAV II;Bagasse TPP;-21.562564;-49.851319;0.147456;2.156544;1.152
GUARIROBA;Bagasse TPP;-20.186473;-49.698401;0.0221184;0.3234816;0.1728
COMVAP;Bagasse TPP;-4.591256;-42.867184;0.01622016;0.23721984;0.12672
DA MATA;Bagasse TPP;-21.244303;-50.869571;0.073728;1.078272;0.576
NOROESTE PAULISTA;Bagasse TPP;-20.664637;-49.924981;0.110592;1.617408;0.864
UBERABA;Bagasse TPP;-19.748313;-47.914878;0.0221184;0.3234816;0.1728
MONÇÕES;Bagasse TPP;-20.876215;-50.129441;0.036864;0.539136;0.288
USAÇÚCAR - TERRA RICA;Bagasse TPP;-22.701249;-52.629300;0.0304128;0.4447872;0.2376
SANTA INES;Bagasse TPP;-21.134924;-48.059082;0.00479232;0.07008768;0.03744
PINDORAMA;Bagasse TPP;-10.119224;-36.168209;0.0073728;0.1078272;0.0576
LOUIS DREYFUS COMMODITIES AGROINDUSTRIAL;Bagasse TPP;-23.582392;-46.831505;0.0073728;0.1078272;0.0576
VIRGOLINO DE OLIVEIRA - FAZENDA CANOAS;Bagasse TPP;-21.053407;-49.697843;0.009216;0.134784;0.072
AGROALCOOL;Bagasse TPP;-20.748645;-49.719217;0.00221184;0.03234816;0.01728
MONTEVERDE;Bagasse TPP;-22.550974;-55.716097;0.036864;0.539136;0.288
VISTA ALEGRE I (ANTIGA ENERGÉTICA VISTA ALEGRE);Bagasse TPP;-21.611607;-55.180381;0.055296;0.808704;0.432
PORTO DAS ÁGUAS;Bagasse TPP;-18.410882;-52.642126;0.129024;1.886976;1.008
NOBLE ENERGIA;Bagasse TPP;-20.660239;-49.927799;0.055296;0.808704;0.432
SANTA LUZIA I;Bagasse TPP;-21.452608;-54.381875;0.239616;3.504384;1.872
PORTO ALEGRE;Bagasse TPP;-8.910043;-35.713931;0.00442368;0.06469632;0.03456
CONQUISTA DO PONTAL;Bagasse TPP;-22.270824;-51.890038;0.202752;2.965248;1.584
CAÇÚ I;Bagasse TPP;-18.575739;-51.131785;0.239616;3.504384;1.872
GUAÍRA ENERGÉTICA;Bagasse TPP;-20.313081;-48.298430;0.101376;1.482624;0.792
COLOMBO PALESTINA;Bagasse TPP;-20.390335;-49.445647;0.027648;0.404352;0.216
CACHOEIRA DOURADA;Bagasse TPP;-18.489251;-49.470448;0.073728;1.078272;0.576
VALE DO TIJUCO;Bagasse TPP;-19.741125;-47.877666;0.082944;1.213056;0.648
CLEALCO-QUEIROZ;Bagasse TPP;-21.804890;-50.217727;0.082944;1.213056;0.648
UNIDADE DE BIOENERGIA COSTA RICA;Bagasse TPP;-18.551578;-53.139214;0.14713897;2.15190743;1.1495232
UNIDADE DE BIOENERGIA ALTO TAQUARI;Bagasse TPP;-17.811642;-53.288886;0.13400064;1.95975936;1.04688
UNIDADE DE BIOENERGIA ÁGUA EMENDADA;Bagasse TPP;-17.525777;-52.084929;0.14713897;2.15190743;1.1495232
UNIDADE DE BIOENERGIA MORRO VERMELHO;Bagasse TPP;-17.580820;-52.541181;0.13400064;1.95975936;1.04688
CHAPADÃO AGROENERGIA;Bagasse TPP;-21.166517;-50.181425;0.1695744;2.4800256;1.3248
JATAÍ;Bagasse TPP;-17.908282;-51.681837;0.193536;2.830464;1.512
SÃO FERNANDO AÇÚCAR E ÁLCOOL;Bagasse TPP;-22.221182;-54.723002;0.0884736;1.2939264;0.6912
VALE DO SÃO SIMÃO;Bagasse TPP;-18.856949;-50.131334;0.101376;1.482624;0.792
BARRA BIOENERGIA;Bagasse TPP;-22.476708;-48.536750;0.2506752;3.6661248;1.9584
BEN BIOENERGIA;Bagasse TPP;-9.915217;-36.333194;0.0976896;1.4287104;0.7632
BIOPAV II;Bagasse TPP;-21.160740;-50.182912;0.119808;1.752192;0.936
BIOENERGÉTICA VALE DO PARACATU - BEVAP;Bagasse TPP;-17.734164;-46.172472;0.101376;1.482624;0.792
RIO PARDO;Bagasse TPP;-23.052979;-49.129748;0.110592;1.617408;0.864
CANABRAVA;Bagasse TPP;-21.672795;-41.311902;0.0811008;1.1860992;0.6336
TROPICAL BIOENERGIA;Bagasse TPP;-17.367916;-49.905406;0.101376;1.482624;0.792
ITUMBIARA;Bagasse TPP;-18.376252;-49.204292;0.1032192;1.5095808;0.8064
ITUIUTABA;Bagasse TPP;-18.965092;-49.489166;0.1032192;1.5095808;0.8064
GUARANI - TANABI;Bagasse TPP;-20.618185;-49.665297;0.0700416;1.0243584;0.5472
TABU;Bagasse TPP;-7.509367;-34.878019;0.01548288;0.22643712;0.12096
CAARAPÓ;Bagasse TPP;-22.610073;-54.814483;0.1400832;2.0487168;1.0944
AMANDINA;Bagasse TPP;-22.306109;-53.848312;0.073728;1.078272;0.576
BIOLINS;Bagasse TPP;-21.675278;-49.780312;0.0516096;0.7547904;0.4032
PASSOS;Bagasse TPP;-20.732616;-46.573274;0.025970688;0.379821312;0.202896
MADECAL;Bagasse TPP;-26.784158;-50.954829;0.00589824;0.08626176;0.04608
SÃO MIGUEL;Bagasse TPP;-9.794159;-36.048588;0.02433024;0.35582976;0.19008
MONTERREY;Bagasse TPP;-23.387164;-46.510155;0.0064512;0.0943488;0.0504
SANTA JULIANA;Bagasse TPP;-19.316906;-47.547497;0.1622016;2.3721984;1.2672
BALDIN;Bagasse TPP;-22.011698;-47.445768;0.082944;1.213056;0.648
LARANJEIRAS;Bagasse TPP;-7.659250;-35.322135;0.00889344;0.13006656;0.06948
MUNDIAL;Bagasse TPP;-21.153199;-51.113812;0.00663552;0.09704448;0.05184
IPAUSSU BIOENERGIA;Bagasse TPP;-23.073656;-49.590730;0.1400832;2.0487168;1.0944
BOM JESUS;Bagasse TPP;-8.267269;-35.022032;0.00589824;0.08626176;0.04608
ITAPURANGA;Bagasse TPP;-15.556943;-49.928509;0.00516096;0.07547904;0.04032
UNIVALEM BIOENERGIA;Bagasse TPP;-21.213473;-50.868156;0.082944;1.213056;0.648
DVPA;Bagasse TPP;-17.236733;-46.848537;0.0516096;0.7547904;0.4032
COLOMBO SANTA ALBERTINA;Bagasse TPP;-20.032216;-50.737458;0.09216;1.34784;0.72
IPÊ (ANTIGA CENI);Bagasse TPP;-21.116831;-51.478740;0.04608;0.67392;0.36
IACO AGRÍCOLA;Bagasse TPP;-18.802688;-52.603554;0.055296;0.808704;0.432
JOSÉ BONIFÁCIO;Bagasse TPP;-21.053794;-49.697339;0.0350208;0.5121792;0.2736
NOBLE ENERGIA II;Bagasse TPP;-20.352886;-50.188008;0.055296;0.808704;0.432
VICENTINA;Bagasse TPP;-22.404224;-54.446375;0.0036864;0.0539136;0.0288
MERIDIANO;Bagasse TPP;-20.457000;-50.207081;0.110592;1.617408;0.864
BIOENERGÉTICA AROEIRA;Bagasse TPP;-18.621175;-48.685711;0.0294912;0.4313088;0.2304
CODORA;Bagasse TPP;-15.301860;-49.083515;0.0884736;1.2939264;0.6912
VITÓRIA;Bagasse TPP;-8.686566;-35.580813;0.00778752;0.11389248;0.06084
VALE DO IVAÍ - CAMBUÍ;Bagasse TPP;-24.003310;-51.821732;0.00663552;0.09704448;0.05184
CABRERA;Bagasse TPP;-19.542453;-50.581143;0.04608;0.67392;0.36
SALGADO;Bagasse TPP;-8.395926;-35.058247;0.00663552;0.09704448;0.05184
COPLASA;Bagasse TPP;-21.025407;-49.918759;0.018432;0.269568;0.144
CAMPO LINDO;Bagasse TPP;-10.487607;-37.192394;0.04608;0.67392;0.36
MANACÁ;Bagasse TPP;-18.384051;-49.202310;0.009216;0.134784;0.072
BURITI;Bagasse TPP;-20.182361;-47.716712;0.09216;1.34784;0.72
IBÉRIA;Bagasse TPP;-22.251959;-50.545607;0.012017664;0.175758336;0.093888
VIRALCOOL CASTILHO;Bagasse TPP;-20.891003;-51.501970;0.09216;1.34784;0.72
MOGIANA BIO-ENERGIA;Bagasse TPP;-20.586554;-47.880019;0.0073728;0.1078272;0.0576
SELECTA;Bagasse TPP;-18.642740;-48.161331;0.02101248;0.30730752;0.16416
DA PEDRA;Bagasse TPP;-21.174595;-47.629503;0.129024;1.886976;1.008
ROSA SA INDÚSTRIA E COMÉRCIO DE PRODUTOS AGRÍCOLAS;Bagasse TPP;-23.274548;-47.699435;0.002359296;0.034504704;0.018432
VALE DO TIJUCO II;Bagasse TPP;-19.700882;-47.973930;0.073728;1.078272;0.576
SÃO FERNANDO ENERGIA I;Bagasse TPP;-22.221390;-54.722467;0.09216;1.34784;0.72
USINA LAGUNA AÇÚCAR E ÁLCOOL;Bagasse TPP;-22.478038;-55.746168;0.00442368;0.06469632;0.03456
UNIDADE BOM SUCESSO;Bagasse TPP;-17.980494;-49.375411;0.0082944;0.1213056;0.0648
PEDRO AFONSO;Bagasse TPP;-8.998591;-48.166578;0.147456;2.156544;1.152
BOM SUCESSO;Bagasse TPP;-17.993259;-49.365819;0.0027648;0.0404352;0.0216
USINA CORURIPE AÇÚCAR E ÁLCOOL;Bagasse TPP;-19.728107;-50.225269;0.036864;0.539136;0.288
RIO VERMELHO;Bagasse TPP;-21.526519;-51.438565;0.073728;1.078272;0.576
PARANAPANEMA;Bagasse TPP;-22.462659;-51.760977;0.110592;1.617408;0.864
FIGUEIRA INDÚSTRIA E COMÉRCIO;Bagasse TPP;-21.076862;-50.122173;0.00811008;0.11860992;0.06336
FISCHER;Bagasse TPP;-22.527428;-47.393033;0.009216;0.134784;0.072
COSTA BIOENERGIA;Bagasse TPP;-23.774738;-53.252707;0.027648;0.404352;0.216
ALCOESTE DESTILARIA FERNANDÓPOLIS;Bagasse TPP;-20.272873;-50.246408;0.007888896;0.115375104;0.061632
TAQUARI;Bagasse TPP;-10.498619;-37.060283;0.0147456;0.2156544;0.1152
PAULICÉIA;Bagasse TPP;-21.305357;-51.831764;0.062208;0.909792;0.486
SÃO SIMÃO;Bagasse TPP;-18.983844;-50.574962;0.00774144;0.11321856;0.06048
BROTAS;Bagasse TPP;-22.266829;-48.153793;0.129024;1.886976;1.008
CONQUISTA DE MINAS;Bagasse TPP;-19.933192;-47.538615;0.00663552;0.09704448;0.05184
ENERVALE;Bagasse TPP;-17.729606;-46.152731;0.055296;0.808704;0.432
VIRÁLCOOL 2;Bagasse TPP;-20.995790;-48.219425;0.055296;0.808704;0.432
ENERGÉTICA ITAJUBARA;Bagasse TPP;-4.237171;-43.013909;0.00589824;0.08626176;0.04608
BIO ALVORADA;Bagasse TPP;-18.426294;-49.192760;0.09216;1.34784;0.72
SÃO MARTINHO ENERGIA;Bagasse TPP;-21.339502;-48.115602;0.0728064;1.0647936;0.5688
UFL;Bagasse TPP;-22.859261;-51.386739;0.0774144;1.1321856;0.6048
UNIÃO;Bagasse TPP;-8.333162;-35.354162;0.018432;0.269568;0.144
USALPA;Bagasse TPP;-21.500709;-51.421151;0.0055296;0.0808704;0.0432
PAM DESTILARIA;Bagasse TPP;-17.219287;-46.839849;0.00221184;0.03234816;0.01728
SANTA MARIA AÇUCAREIRA;Bagasse TPP;-9.045900;-35.402154;0.00847872;0.12400128;0.06624
FURLAN AVARÉ;Bagasse TPP;-23.112499;-48.905700;0.055296;0.808704;0.432
BAMBUÍ;Bagasse TPP;-20.016243;-45.980555;0.055296;0.808704;0.432
CEPASA;Bagasse TPP;-8.126722;-34.996710;0.009216;0.134784;0.072
ANAMÃ;Natural gas TPP;-3.615548;-61.447581;0.000136551;0.000136551;0.000136551
ANORI;Natural gas TPP;-3.740979;-61.658565;0.000288239;0.000288239;0.000288239
ASFOR;Natural gas TPP;-3.755883;-38.521551;0.000352152;0.000352152;0.000352152
CAAPIRANGA;Natural gas TPP;-3.755883;-38.521551;0.000136551;0.000136551;0.000136551
CAMAÇARI;Natural gas TPP;-12.706047;-38.303425;0.013740235;0.013740235;0.013740235
CODAJÁS;Natural gas TPP;-3.839333;-62.058371;0.000384319;0.000384319;0.000384319
ENERGY WORKS KAISER PACATUBA;Natural gas TPP;-3.930491;-38.607034;0.000583626;0.000583626;0.000583626
GLOBO;Natural gas TPP;-22.789215;-43.301665;0.000542419;0.000542419;0.000542419
AURELIANO CHAVES (ANTIGA IBIRITÉ);Natural gas TPP;-20.028628;-44.055764;0.02375712;0.02375712;0.02375712
ILHA PLAZA SHOPPING;Natural gas TPP;-22.989471;-43.432752;0.000136656;0.000136656;0.000136656
JUIZ DE FORA;Natural gas TPP;-21.750927;-43.360178;0.009150486;0.009150486;0.009150486
NORTE FLUMINENSE;Natural gas TPP;-22.378914;-41.798399;0.091341396;0.091341396;0.091341396
CTS-CENTRAL TERMELÉTRICA SUL (ANTIGA RHODIA SANTO ANDRÉ);Natural gas TPP;-23.647339;-46.512655;0.00115632;0.00115632;0.00115632
SOLVAY;Natural gas TPP;-23.624116;-46.516077;0.001324512;0.001324512;0.001324512
SUAPE, CGDE, KOBLITZ ENERGIA LTDA;Natural gas TPP;-8.287947;-35.033770;0.00042048;0.00042048;0.00042048
SUZANO;Natural gas TPP;-23.552984;-46.315180;0.004036608;0.004036608;0.004036608
CELPAV IV;Natural gas TPP;-23.308796;-45.962328;0.014656251;0.014656251;0.014656251
URUGUAIANA;Natural gas TPP;-29.776215;-57.089583;0.067266288;0.067266288;0.067266288
CUIABÁ (MÁRIO COVAS);Natural gas TPP;-15.600190;-56.064620;0.055629504;0.055629504;0.055629504
CTE II;Natural gas TPP;-22.504897;-44.093392;0.018708206;0.018708206;0.018708206
MODULAR DE CAMPO GRANDE (WILLIAN ARJONA);Natural gas TPP;-20.511636;-54.634819;0.021691512;0.021691512;0.021691512
ENERGY WORKS KAISER JACAREÍ;Natural gas TPP;-23.302971;-45.966578;0.000903191;0.000903191;0.000903191
SANTA CRUZ;Natural gas TPP;-23.000372;-43.421579;0.08788032;0.08788032;0.08788032
CELSO FURTADO (ANTIGA TERMOBAHIA FASE I);Natural gas TPP;-12.621587;-38.678957;0.019540862;0.019540862;0.019540862
BRAHMA;Natural gas TPP;-22.991491;-43.401602;0.00137497;0.00137497;0.00137497
REFINARIA DUQUE DE CAXIAS - REDUC;Natural gas TPP;-22.787143;-43.297404;0.006654096;0.006654096;0.006654096
UGPU;Natural gas TPP;-23.192062;-46.877181;0.000809424;0.000809424;0.000809424
ARAUCÁRIA;Natural gas TPP;-25.573015;-49.402634;0.050893848;0.050893848;0.050893848
PROJAC CENTRAL GLOBO DE PRODUÇÃO;Natural gas TPP;-22.998467;-43.398843;0.000520344;0.000520344;0.000520344
GOVERNADOR LEONEL BRIZOLA (ANTIGA TERMORIO);Natural gas TPP;-22.779913;-43.315996;0.111248496;0.111248496;0.111248496
CAMAÇARI;Natural gas TPP;-12.602019;-38.303688;0.036455931;0.036455931;0.036455931
CAMPOS (ANTIGA ROBERTO SILVEIRA);Natural gas TPP;-21.726099;-41.311317;0.0031536;0.0031536;0.0031536
BARBOSA LIMA SOBRINHO (ANTIGA ELETROBOLT);Natural gas TPP;-22.738838;-43.708921;0.039432614;0.039432614;0.039432614
RHODIA PAULÍNIA;Natural gas TPP;-22.759084;-47.153951;0.001271742;0.001271742;0.001271742
LUIZ CARLOS PRESTES (ANTIGA TRÊS LAGOAS);Natural gas TPP;-20.775059;-51.688207;0.040557293;0.040557293;0.040557293
IGUATEMI FORTALEZA;Natural gas TPP;-3.741120;-38.486830;0.000503945;0.000503945;0.000503945
VITÓRIA APART HOSPITAL;Natural gas TPP;-20.116467;-40.284150;0.000220752;0.000220752;0.000220752
CESAR PARK BUSINESS HOTEL/GLOBENERGY;Natural gas TPP;-23.434855;-46.532333;0.000220752;0.000220752;0.000220752
BAYER;Natural gas TPP;-23.551987;-46.634139;0.000403661;0.000403661;0.000403661
EUZÉBIO ROCHA (ANTIGA CUBATÃO - CCBS);Natural gas TPP;-23.854429;-46.414827;0.026269488;0.026269488;0.026269488
CTE FIBRA;Natural gas TPP;-22.379286;-41.797380;0.000926317;0.000926317;0.000926317
MÁRIO LAGO (ANTIGA MACAÉ MERCHANT);Natural gas TPP;-22.377646;-41.784973;0.096985289;0.096985289;0.096985289
TERMOPERNAMBUCO;Natural gas TPP;-8.399111;-35.060564;0.056003279;0.056003279;0.056003279
TERMO NORTE II;Natural gas TPP;-8.754679;-63.862460;0.036786744;0.036786744;0.036786744
SEPÉ TIARAJU (ANTIGA CANOAS);Natural gas TPP;-29.906946;-51.162713;0.026129952;0.026129952;0.026129952
IGUATEMI BAHIA;Natural gas TPP;-12.960972;-38.492457;0.000874178;0.000874178;0.000874178
ENERGYWORKS CORN PRODUCTS MOGI;Natural gas TPP;-22.351021;-46.943427;0.003235068;0.003235068;0.003235068
ENERGYWORKS CORN PRODUCTS BALSA;Natural gas TPP;-25.581870;-49.628309;0.000966999;0.000966999;0.000966999
PETROFLEX;Natural gas TPP;-22.763209;-43.301635;0.0015768;0.0015768;0.0015768
SHOPPING TABOÃO;Natural gas TPP;-23.617756;-46.781516;0.000352678;0.000352678;0.000352678
FERNANDO GASPARIAN (ANTIGA NOVA PIRATININGA);Natural gas TPP;-23.546678;-46.644394;0.04058473;0.04058473;0.04058473
PONTA DO COSTA;Natural gas TPP;-22.797070;-42.013650;0.00042048;0.00042048;0.00042048
RÔMULO ALMEIDA UNIDADE I (ANTIGA USINA DE COGERAÇÃO CAMAÇARI - FAFEN ENERGIA);Natural gas TPP;-12.695511;-38.309967;0.014508662;0.014508662;0.014508662
JESUS SOARES PEREIRA ;Natural gas TPP;-5.292244;-36.755156;0.033950291;0.033950291;0.033950291
CINAL/TRIKEM;Natural gas TPP;-9.716004;-35.895135;0.00033507;0.00033507;0.00033507
CARIOCA SHOPPING;Natural gas TPP;-23.011379;-43.505355;0.000336384;0.000336384;0.000336384
METALURGIA CARAÍBA;Natural gas TPP;-12.617585;-38.295373;0.00189216;0.00189216;0.00189216
MACAÍBA (ANTIGA TERMO TOALIA);Natural gas TPP;-5.848229;-35.353888;0.000597082;0.000597082;0.000597082
TERMOCABO;Natural gas TPP;-8.287038;-35.027005;0.00520344;0.00520344;0.00520344
IGW/SERVICE ENERGY;Natural gas TPP;-23.499105;-46.629643;0.000296964;0.000296964;0.000296964
STEPIE ULB;Natural gas TPP;-29.900996;-51.191879;0.000346896;0.000346896;0.000346896
FORTALEZA;Natural gas TPP;-3.729310;-38.658845;0.036437746;0.036437746;0.036437746
TERMOCEARÁ;Natural gas TPP;-3.718276;-38.660809;0.023029374;0.023029374;0.023029374
INAPEL;Natural gas TPP;-23.434212;-46.552920;0.000126564;0.000126564;0.000126564
EUCATEX;Natural gas TPP;-23.200639;-47.296043;0.001030176;0.001030176;0.001030176
JACAREÍ;Natural gas TPP;-23.299812;-45.968806;0.00110376;0.00110376;0.00110376
VULCABRÁS;Natural gas TPP;-4.095220;-38.492557;0.000523498;0.000523498;0.000523498
CASA DE GERADORES DE ENERGIA ELÉTRICA F-242;Natural gas TPP;-23.239686;-45.889117;0.00094608;0.00094608;0.00094608
ATALAIA;Natural gas TPP;-10.923527;-37.063641;0.000483552;0.000483552;0.000483552
MILLENNIUM;Natural gas TPP;-12.697761;-38.299141;0.000502579;0.000502579;0.000502579
CONTAGEM;Natural gas TPP;-19.921321;-44.076537;0.002028711;0.002028711;0.002028711
CENPES - PETROBRÁS;Natural gas TPP;-22.993370;-43.337520;0.001688753;0.001688753;0.001688753
PARAIBUNA;Natural gas TPP;-21.778043;-43.338874;0.00021024;0.00021024;0.00021024
SOUZA CRUZ CACHOEIRINHA;Natural gas TPP;-29.927448;-51.089605;0.000310314;0.000310314;0.000310314
WEATHERFORD;Natural gas TPP;-29.286516;-51.080283;3.51101E-05;3.51101E-05;3.51101E-05
OPERADORA SÃO PAULO RENAISSANCE;Natural gas TPP;-23.535613;-46.603546;0.000180806;0.000180806;0.000180806
MICROTURGN;Natural gas TPP;-20.466172;-54.629082;0.000010512;0.000010512;0.000010512
SESC SENAC-CASS;Natural gas TPP;-22.991492;-43.413314;0.000168192;0.000168192;0.000168192
PAMESA;Natural gas TPP;-8.296450;-35.031878;0.000428049;0.000428049;0.000428049
IMCOPA;Natural gas TPP;-25.600885;-49.393372;0.00073584;0.00073584;0.00073584
JARAQUI;Natural gas TPP;-3.118005;-59.972161;0.007934142;0.007934142;0.007934142
CENU;Natural gas TPP;-23.495330;-46.633762;0.00042048;0.00042048;0.00042048
PQU;Natural gas TPP;-23.639305;-46.486915;0.000920851;0.000920851;0.000920851
AEROPORTO DE MACEIÓ;Natural gas TPP;-9.506798;-35.792819;8.30448E-05;8.30448E-05;8.30448E-05
MANAUARA;Natural gas TPP;-3.082314;-60.018386;0.008975146;0.008975146;0.008975146
GERAÇÃO PRÓPRIA DE ENERGIA ELÉTRICA - GPEE;Natural gas TPP;-23.002233;-43.312013;0.00063072;0.00063072;0.00063072
CENTRAL DE CO-GERAÇÃO SHOPPING - ARACAJU;Natural gas TPP;-10.919497;-37.067762;0.000273312;0.000273312;0.000273312
CRYLOR;Natural gas TPP;-23.163351;-45.898017;0.00084096;0.00084096;0.00084096
SHOPPING RECIFE;Natural gas TPP;-8.118832;-34.905085;0.00063072;0.00063072;0.00063072
GE CELMA;Natural gas TPP;-22.512743;-43.212955;0.000111743;0.000111743;0.000111743
PORTO DO PECÉM;Natural gas TPP;-3.608361;-38.969488;0.00055188;0.00055188;0.00055188
BIANCOGRÊS;Natural gas TPP;-20.199596;-40.198277;0.000537163;0.000537163;0.000537163
CENTRO OPERACIONAL REGIÃO METROPOLITANA DE SÃO PAULO;Natural gas TPP;-23.548223;-46.624908;3.51101E-05;3.51101E-05;3.51101E-05
CONDOMÍNIO W.T.C.;Natural gas TPP;-23.608316;-46.697210;0.00055188;0.00055188;0.00055188
NORTE SHOPPING;Natural gas TPP;-22.885580;-43.283244;0.0003942;0.0003942;0.0003942
AHLSTROM;Natural gas TPP;-23.077554;-46.953413;0.000136656;0.000136656;0.000136656
POLICAM;Natural gas TPP;-21.762429;-41.318514;0.00042048;0.00042048;0.00042048
SHOPPING INTERLAGOS;Natural gas TPP;-23.675811;-46.676079;0.00018396;0.00018396;0.00018396
SUPERSHOPPING OSASCO;Natural gas TPP;-23.535389;-46.771198;0.000136656;0.000136656;0.000136656
GÁS CAAPIRANGA;Natural gas TPP;-3.115871;-59.972152;0.000231264;0.000231264;0.000231264
GÁS ANORI;Natural gas TPP;-4.261855;-61.843205;0.000346896;0.000346896;0.000346896
GÁS ANAMÃ;Natural gas TPP;-3.584485;-61.460505;0.000346896;0.000346896;0.000346896
LUIZ OSCAR RODRIGUES DE MELO (ANTIGA LINHARES);Natural gas TPP;-19.374243;-40.085200;0.02144448;0.02144448;0.02144448
SHOPPING CAXIAS;Natural gas TPP;-22.786930;-43.286317;0.000136656;0.000136656;0.000136656
MC2 NOVA VENÉCIA 2;Natural gas TPP;-4.833165;-44.482329;0.018522144;0.018522144;0.018522144
LEVORIN;Natural gas TPP;-23.460559;-46.497549;0.000432043;0.000432043;0.000432043
SHOPPING CAMPO GRANDE;Natural gas TPP;-20.458826;-54.588259;0.000489334;0.000489334;0.000489334
MARANHÃO IV (ANTIGA MC2 JOINVILLE);Natural gas TPP;-4.864216;-44.360790;0.035488512;0.035488512;0.035488512
MARANHÃO V (ANTIGA MC2 JOÃO NEIVA);Natural gas TPP;-4.868590;-44.358440;0.035488512;0.035488512;0.035488512
TORRE ELDORADO;Natural gas TPP;-23.570844;-46.697256;0.000416275;0.000416275;0.000416275
SHOPPING TACARUNA;Natural gas TPP;-8.025962;-34.864007;0.000273312;0.000273312;0.000273312
PETRORECÔNCAVO;Natural gas TPP;-12.505389;-38.320309;0.00010512;0.00010512;0.00010512
BRASKEM PVC-AL;Natural gas TPP;-9.678459;-35.766015;0.000304848;0.000304848;0.000304848
BAIXADA FLUMINENSE;Natural gas TPP;-22.723639;-43.649035;0.0557136;0.0557136;0.0557136
YUNI GTIS LEOPOLDO GREEN;Natural gas TPP;-23.586605;-46.679399;0.000216022;0.000216022;0.000216022
EDIFÍCIO SKY;Natural gas TPP;-23.607554;-46.697566;0.000136656;0.000136656;0.000136656
SHOPPING CENTER VALE;Natural gas TPP;-23.199599;-45.881243;0.000216022;0.000216022;0.000216022
TS5 TOWER 4;Natural gas TPP;-23.610348;-46.696816;0.00051719;0.00051719;0.00051719
RJR;Natural gas TPP;-22.902819;-43.175527;0.001264594;0.001264594;0.001264594
PARNAÍBA IV;Natural gas TPP;-4.865653;-44.360687;0.005915838;0.005915838;0.005915838
COGERAÇÃO DE MILLUS AV BRASIL;Natural gas TPP;-22.817500;-43.283056;0.000239043;0.000239043;0.000239043
OESTE CANOAS I;Natural gas TPP;-2.759753;-42.825324;0.000377086;0.000377086;0.000377086
ESPIGÃO I;Natural gas TPP;-2.500753;-43.249984;0.000377086;0.000377086;0.000377086
SISTEMA BACKUP DE GERAÇÃO DA ESTAÇÃO DE COMPRESSÃO DE GÁS NATURAL DE PAULÍNIA/SP;Natural gas TPP;-22.770001;-47.154645;0.000120888;0.000120888;0.000120888
CHARQUEADAS;Coal TPP;-29.943834;-51.573889;4.1375232;49.2718464;26.7046848
FIGUEIRA;Coal TPP;-23.852639;-50.390386;1.149312;13.686624;7.417968
JORGE LACERDA I E II;Coal TPP;-28.451793;-48.968880;13.3320192;158.7648384;86.0484288
PRESIDENTE MÉDICI A, B;Coal TPP;-31.551735;-53.681574;25.6296576;305.2117152;165.4206864
SÃO JERÔNIMO;Coal TPP;-29.965889;-51.721737;1.149312;13.686624;7.417968
JORGE LACERDA III;Coal TPP;-28.460391;-48.964919;15.0559872;179.2947744;97.1753808
JORGE LACERDA IV;Coal TPP;-28.454486;-48.969146;20.8600128;248.4122256;134.6361192
ALUNORTE;Coal TPP;-1.545510;-48.736133;5.968032422;71.07053244;38.51928243
ALUMAR;Coal TPP;-2.710080;-44.347869;4.32141312;51.46170624;27.89155968
PORTO DO ITAQUI (ANTIGA TERMOMARANHÃO);Coal TPP;-2.587064;-44.338972;20.69548879;246.4529854;133.5742371
PORTO DO PECÉM I (ANTIGA MPX);Coal TPP;-3.585359;-38.857085;41.39097757;492.9059707;267.1484742
CANDIOTA III;Coal TPP;-31.585236;-53.670803;20.11296;239.51592;129.81444
PORTO DO PECÉM II;Coal TPP;-3.583405;-38.874487;20.974944;249.780888;135.377916
CAMPINA GRANDE;Fuel oil TPP;-7.200901;-35.874785;0.026660534;0.211803134;0.119231834
CELPAV II;Fuel oil TPP;-21.547572;-47.701072;0.005140368;0.040837368;0.022988868
COGERAÇÃO INTERNATIONAL PAPER - FASES I E II;Fuel oil TPP;-22.322119;-46.937936;0.00796284;0.06326034;0.03561159
IGARAPÉ;Fuel oil TPP;-19.941624;-44.318832;0.02065608;0.16410108;0.09237858
NUTEPA;Fuel oil TPP;-30.077355;-51.081358;0.00378432;0.03006432;0.01692432
PIRATININGA;Fuel oil TPP;-23.777330;-46.724389;0.0299592;0.2380092;0.1339842
MRN UG I (ANTIGA PORTO TROMBETAS);Fuel oil TPP;-1.749457;-55.853681;0.002412504;0.019166004;0.010789254
REFAP;Fuel oil TPP;-29.936400;-51.148626;0.01178185;0.09360025;0.05269105
MAUÁ;Fuel oil TPP;-2.991764;-60.017982;0.087128292;0.692185872;0.389657082
CADAM;Fuel oil TPP;0.254113;-51.063160;0.003940739;0.031306979;0.017623859
APARECIDA PARTE I;Fuel oil TPP;-3.035503;-60.000610;0.037959883;0.301570183;0.169765033
CAPUAVA;Fuel oil TPP;-23.719169;-46.521041;0.002841394;0.022573294;0.012707344
REMAN;Fuel oil TPP;-3.002589;-59.981384;0.001009152;0.008017152;0.004513152
ORSA;Fuel oil TPP;-24.118094;-48.898865;0.00070956;0.00563706;0.00317331
CITROSUCO;Fuel oil TPP;-22.533771;-47.385714;0.000362664;0.002881164;0.001621914
CNT;Fuel oil TPP;-14.458003;-48.438385;0.00567648;0.04509648;0.02538648
NORTE;Fuel oil TPP;-22.765274;-47.116347;0.000614637;0.004882947;0.002748792
TAMBAQUI;Fuel oil TPP;-3.006704;-59.931859;0.014671493;0.116556863;0.065614178
PONTA NEGRA;Fuel oil TPP;-3.008975;-59.941901;0.013462718;0.106953818;0.060208268
CRISTIANO ROCHA;Fuel oil TPP;-3.010818;-59.962157;0.013462718;0.106953818;0.060208268
CAMAÇARI MURICY I;Fuel oil TPP;-12.693489;-38.303935;0.023920056;0.190031556;0.106975806
CAMAÇARI PÓLO DE APOIO I;Fuel oil TPP;-12.691061;-38.311145;0.023652;0.187902;0.105777
TERMOPARAÍBA;Fuel oil TPP;-7.096830;-34.857626;0.026939943;0.214022883;0.120481413
GLOBAL II;Fuel oil TPP;-12.675504;-38.538919;0.023462784;0.186398784;0.104930784
TERMONORDESTE;Fuel oil TPP;-7.077273;-34.857021;0.026939943;0.214022883;0.120481413
GLOBAL I;Fuel oil TPP;-12.670814;-38.536515;0.023462784;0.186398784;0.104930784
MARACANAÚ I;Fuel oil TPP;-3.854531;-38.617319;0.02649024;0.21045024;0.11847024
VIANA;Fuel oil TPP;-20.365227;-40.433066;0.027530928;0.218717928;0.123124428
GERAMAR II (ANTIGA NOVA OLINDA);Fuel oil TPP;-3.554679;-44.582989;0.026154382;0.207782032;0.116968207
GERAMAR I (ANTIGA TOCANTINÓPOLIS);Fuel oil TPP;-3.562070;-44.581028;0.026154382;0.207782032;0.116968207
SUAPE II;Fuel oil TPP;-8.294746;-35.031216;0.060116919;0.477595524;0.268856222
MRN UG II;Fuel oil TPP;-1.747055;-55.876341;0.007221744;0.057372744;0.032297244
PERNAMBUCO III;Fuel oil TPP;-7.851113;-34.906701;0.031660567;0.251525617;0.141593092
SANTANA;Diesel TPP;-0.008493;-51.173438;0.24962496;0.67086708;0.46024602
PALMEIRAS DE GOIÁS;Diesel TPP;-16.807840;-49.937062;0.246064896;0.661299408;0.453682152
TERMOMANAUS;Diesel TPP;-7.846155;-34.902560;0.19993824;0.53733402;0.36863613
GOIÂNIA II;Diesel TPP;-16.830395;-49.282308;0.196224;0.527352;0.361788
PETROLINA;Diesel TPP;-9.391843;-40.487816;0.19089792;0.51303816;0.35196804
ELECTRON (TG);Diesel TPP;-3.938009;-60.815127;0.168192;0.452016;0.310104
FLORES;Diesel TPP;-3.108356;-60.062581;0.13952928;0.37498494;0.25725711
PAU FERRO I;Diesel TPP;-7.837312;-34.903933;0.131862528;0.354380544;0.243121536
SENADOR ARNON AFONSO FARIAS DE MELLO (FLORESTA);Diesel TPP;2.858820;-60.682830;0.120435283;0.323669824;0.222052553
POTIGUAR III;Diesel TPP;-5.853701;-35.347469;0.09306624;0.25011552;0.17159088
XAVANTES ARUANÃ;Diesel TPP;-16.700689;-49.253174;0.075092122;0.201810077;0.138451099
POTIGUAR;Diesel TPP;-5.857031;-35.362361;0.074452992;0.200092416;0.137272704
MAUÁ PARTE III BLOCO IRANDUBA;Diesel TPP;-3.123320;-60.249414;0.07008;0.18834;0.12921
RIO ACRE;Diesel TPP;-9.942879;-67.843285;0.063768735;0.171378476;0.117573606
DAIA;Diesel TPP;-16.353937;-48.945165;0.062287104;0.167396592;0.114841848
BELO JARDIM;Diesel TPP;-9.934425;-67.811871;0.061444742;0.165132745;0.113288744
RIO MADEIRA;Diesel TPP;-8.794378;-63.881171;0.060896717;0.163659926;0.112278322
MAUÁ PARTE II BLOCO DISTRITO;Diesel TPP;-3.055976;-60.075594;0.056064;0.150672;0.103368
SÃO JOSÉ;Diesel TPP;-3.118640;-60.044729;0.04877568;0.13108464;0.08993016
BAHIA I - CAMAÇARI;Diesel TPP;-12.724634;-38.298763;0.04457088;0.11978424;0.08217756
RIO BRANCO II;Diesel TPP;-9.956067;-67.833157;0.04457088;0.11978424;0.08217756
CRUZEIRO DO SUL;Diesel TPP;-7.626941;-72.663352;0.033933297;0.091195735;0.062564516
VILHENA;Diesel TPP;-12.728126;-60.123216;0.033288;0.0894615;0.06137475
MANACAPURU;Diesel TPP;-3.290058;-60.618917;0.033206707;0.089243026;0.061224866
PARINTINS;Diesel TPP;-2.635442;-56.750101;0.0322368;0.0866364;0.0594366
COARI;Diesel TPP;-4.103067;-63.132625;0.031199616;0.083848968;0.057524292
SERRA DO NAVIO;Diesel TPP;0.922967;-51.999279;0.03027456;0.08136288;0.05581872
TABATINGA;Diesel TPP;-9.228587;-61.888935;0.029570957;0.079471946;0.054521452
ITACOATIARA;Diesel TPP;-3.122047;-58.440624;0.029562547;0.079449346;0.054505946
NOVA BURITIS;Diesel TPP;-10.221932;-63.838957;0.02648183;0.071169919;0.048825875
RIO BRANCO I;Diesel TPP;-9.988190;-67.816849;0.026079571;0.070088848;0.048084209
TEFÉ;Diesel TPP;-3.360214;-64.719116;0.024170592;0.064958466;0.044564529
CIDADE NOVA;Diesel TPP;-3.079559;-60.081807;0.02186496;0.05876208;0.04031352
CAUCAIA;Diesel TPP;-3.729635;-38.647407;0.020687616;0.055597968;0.038142792
IGUATU;Diesel TPP;-6.365816;-39.322222;0.020687616;0.055597968;0.038142792
JUAZEIRO DO NORTE;Diesel TPP;-7.238327;-39.306693;0.020687616;0.055597968;0.038142792
ENGUIA PECÉM;Diesel TPP;-3.612023;-38.966827;0.020687616;0.055597968;0.038142792
MACHADINHO DO OESTE;Diesel TPP;-9.429710;-61.906695;0.018679123;0.050200144;0.034439633
ALTOS;Diesel TPP;-5.045332;-42.467325;0.018388992;0.049420416;0.033904704
CAMPO MAIOR;Diesel TPP;-4.825288;-42.186023;0.018388992;0.049420416;0.033904704
CRATO;Diesel TPP;-7.240891;-39.420606;0.018388992;0.049420416;0.033904704
MARAMBAIA;Diesel TPP;-5.158406;-42.757533;0.018388992;0.049420416;0.033904704
NAZÁRIA;Diesel TPP;-5.066078;-42.791179;0.018388992;0.049420416;0.033904704
PIMENTA BUENO;Diesel TPP;-11.697414;-61.177868;0.0182208;0.0489684;0.0335946
HUMAITÁ;Diesel TPP;-7.519660;-63.041588;0.018122688;0.048704724;0.033413706
BRUMADO;Diesel TPP;-27.101462;-48.865029;0.018073632;0.048572886;0.033323259
ITAÚ MOOCA;Diesel TPP;-23.557717;-46.614142;0.01790544;0.04812087;0.033013155
MAUÉS;Diesel TPP;-3.395058;-57.706983;0.016356672;0.043958556;0.030157614
ARACATI;Diesel TPP;-4.566349;-37.763770;0.016090368;0.043242864;0.029666616
BATURITÉ;Diesel TPP;-4.328580;-38.879105;0.016090368;0.043242864;0.029666616
CATERPILLAR;Diesel TPP;-22.743927;-47.667837;0.016090368;0.043242864;0.029666616
BOCA DO ACRE;Diesel TPP;-8.779490;-67.361449;0.01583808;0.04256484;0.02920146
CARACARAÍ;Diesel TPP;1.825310;-61.140633;0.01535593;0.041269061;0.028312495
COLORADO DO OESTE;Diesel TPP;-13.127585;-60.532022;0.015341914;0.041231393;0.028286653
BRASÍLIA;Diesel TPP;-15.846971;-48.134780;0.014016;0.037668;0.025842
ALCOA BENEFICIAMENTO;Diesel TPP;-2.154843;-56.082131;0.013774925;0.03702011;0.025397518
AEROPORTO INTERNACIONAL DE SÃO PAULO/GUARULHOS-CENTRAL ELÉTRICA DE EMERGÊNCIA CEE;Diesel TPP;-23.467761;-46.542861;0.01345536;0.03616128;0.02480832
VILA RICA;Diesel TPP;-10.020824;-51.115775;0.0129648;0.0348429;0.02390385
NOVO PROGRESSO;Diesel TPP;-7.087150;-55.410206;0.0127896;0.03437205;0.023580825
CENTRAL GERADORA DE EMERGÊNCIA - CSAC;Diesel TPP;-8.704117;-63.895762;0.0127896;0.03437205;0.023580825
BREVES;Diesel TPP;-1.672924;-50.499516;0.012195041;0.032774173;0.022484607
LARANJAL DO JARI;Diesel TPP;-0.822257;-52.500278;0.01215888;0.03267699;0.022417935
ORIXIMINÁ;Diesel TPP;-1.765886;-55.851664;0.011888932;0.031951504;0.021920218
SÃO FRANCISCO DO GUAPORÉ;Diesel TPP;-12.072632;-63.559287;0.011804275;0.03172399;0.021764132
APARECIDA PARTE II;Diesel TPP;-3.028549;-59.951998;0.01177344;0.03164112;0.02170728
OIAPOQUE;Diesel TPP;3.837141;-51.828868;0.0115632;0.0310761;0.02131965
SAPEZAL;Diesel TPP;-13.561296;-58.807770;0.011395008;0.030624084;0.021009546
VISTA ALEGRE DO ABUNÃ;Diesel TPP;-8.807949;-63.903659;0.011296896;0.030360408;0.020828652
MUNGUBA;Diesel TPP;-1.501644;-52.590907;0.0112128;0.0301344;0.0206736
ALTEROSA;Diesel TPP;-19.828745;-44.602319;0.0112128;0.0301344;0.0206736
HERMASA;Diesel TPP;-3.141802;-58.434466;0.010638144;0.028590012;0.019614078
SÃO JOSÉ DO RIO CLARO;Diesel TPP;-13.448112;-56.735056;0.010596096;0.028477008;0.019536552
CALÇADOS AZALÉIA;Diesel TPP;-15.347641;-40.019111;0.010512;0.028251;0.0193815
SANTANA DO ARAGUAIA;Diesel TPP;-9.339164;-50.330631;0.010294472;0.027666393;0.018980432
ITAÚSA;Diesel TPP;-23.525113;-46.727822;0.01023168;0.02749764;0.01886466
CUJUBIM;Diesel TPP;-9.366478;-62.594616;0.009365491;0.025169758;0.017267624
MONTE ALEGRE;Diesel TPP;-1.987823;-54.085127;0.009343066;0.025109489;0.017226277
ITAUTINGA;Diesel TPP;-3.117517;-60.040974;0.009194496;0.024710208;0.016952352
3M SUMARÉ;Diesel TPP;-22.809053;-47.273350;0.00897024;0.02410752;0.01653888
BORBA;Diesel TPP;-4.406794;-59.599754;0.008956224;0.024069852;0.016513038
EIRUNEPÉ;Diesel TPP;-6.850469;-70.242271;0.008872128;0.023843844;0.016357986
ALVORADA D´OESTE;Diesel TPP;-11.358026;-62.298663;0.008845498;0.023772275;0.016308886
LÁBREA;Diesel TPP;-7.266740;-64.782003;0.00883008;0.02373084;0.01628046
AUTAZES;Diesel TPP;-3.584836;-59.116852;0.008468467;0.022759006;0.015613736
CASTANHO;Diesel TPP;-3.814581;-60.351126;0.0084096;0.0226008;0.0155052
SÃO GABRIEL DA CACHOEIRA;Diesel TPP;-0.114796;-67.087488;0.00819936;0.02203578;0.01511757
ALCOA PORTO;Diesel TPP;-27.812284;-50.304971;0.00791063;0.021259819;0.014585225
MONTE DOURADO;Diesel TPP;-1.527495;-52.585298;0.00767376;0.02062323;0.014148495
TIVIT BARRA (ANTIGA OPTIGLOBE RIO);Diesel TPP;-23.041175;-43.554073;0.007672919;0.02062097;0.014146944
TIVIT TRANSAMÉRICA (ANTIGA OPTIGLOBE SÃO PAULO);Diesel TPP;-23.651232;-46.721660;0.007672919;0.02062097;0.014146944
EDIFÍCIO ROCHAVERÁ;Diesel TPP;-23.568234;-46.669525;0.007666752;0.020604396;0.014135574
CARAUARI;Diesel TPP;-4.867313;-66.898690;0.00764713;0.020551661;0.014099395
CHUPINGUAIA;Diesel TPP;-12.548982;-60.911644;0.007582656;0.020378388;0.013980522
CODAJÁS;Diesel TPP;-3.840531;-62.059850;0.00728832;0.01958736;0.01343784
MANICORÉ;Diesel TPP;-5.813654;-61.282751;0.007162176;0.019248348;0.013205262
BENJAMIN CONSTANT;Diesel TPP;-4.382773;-70.018284;0.00714816;0.01921068;0.01317942
APUÍ;Diesel TPP;-7.205666;-59.881458;0.007008;0.018834;0.012921
COSTA MARQUES;Diesel TPP;-12.441442;-64.223649;0.006988378;0.018781265;0.012884821
JBS ANDRADINA;Diesel TPP;-20.904327;-51.390530;0.006951936;0.018683328;0.012817632
ALBRÁS;Diesel TPP;-1.517284;-48.615369;0.006951936;0.018683328;0.012817632
FRANGO SERTANEJO;Diesel TPP;-20.797257;-49.226139;0.00692951;0.018623059;0.012776285
TERMOMECÂNICA SÃO PAULO;Diesel TPP;-23.654819;-46.572277;0.006901478;0.018547723;0.012724601
CAIMA;Diesel TPP;-4.255558;-55.998945;0.006895872;0.018532656;0.012714264
NOVA OLINDA DO NORTE;Diesel TPP;-3.583702;-59.123495;0.006881856;0.018494988;0.012688422
FEIJÓ;Diesel TPP;-8.165956;-70.363976;0.006848778;0.018406092;0.012627435
AGUDOS AMBEV;Diesel TPP;-22.464784;-48.981483;0.00672768;0.01808064;0.01240416
MARFRIG MINEIROS;Diesel TPP;-16.641489;-49.251801;0.00672768;0.01808064;0.01240416
ÓBIDOS;Diesel TPP;-1.901346;-55.506479;0.00672768;0.01808064;0.01240416
RÁDIO E TELEVISÃO RECORD;Diesel TPP;-23.666155;-46.715713;0.006671616;0.017929968;0.012300792
TARAUACÁ;Diesel TPP;-8.160583;-70.768790;0.006654797;0.017884766;0.012269782
NOVO ARIPUANÃ;Diesel TPP;-5.125476;-60.384666;0.006545472;0.017590956;0.012068214
COMODORO;Diesel TPP;-13.664935;-59.777403;0.006515758;0.0175111;0.012013429
AMAPÁ GARDEN SHOPPING;Diesel TPP;0.168033;-51.073171;0.00644736;0.01732728;0.01188732
LATASA SANTA CRUZ;Diesel TPP;-23.000730;-43.446956;0.006279168;0.016875264;0.011577216
ITAGUASSU AGRO INDUSTRIAL;Diesel TPP;-10.855831;-37.123670;0.006237681;0.016763767;0.011500724
SHOPPING CENTER IGUATEMI PORTO ALEGRE;Diesel TPP;-30.189000;-51.118437;0.006223104;0.016724592;0.011473848
FBA;Diesel TPP;-23.376182;-47.894920;0.006223104;0.016724592;0.011473848
TUBARÃO;Diesel TPP;-3.863279;-32.427055;0.006127795;0.01646845;0.011298122
CERVEJARIA PETRÓPOLIS;Diesel TPP;-22.406336;-42.966538;0.006099763;0.016393114;0.011246438
ROVEMA-TRIUNFO;Diesel TPP;-8.809639;-63.696598;0.006082944;0.016347912;0.011215428
ANORI;Diesel TPP;-3.746233;-61.657769;0.006068928;0.016310244;0.011189586
SOURE;Diesel TPP;-0.393838;-48.610756;0.005985393;0.016085743;0.011035568
SISTEMA DE GERAÇÃO DO MUNICÍPIO DE FEIJÓ;Diesel TPP;-8.167023;-70.346755;0.00597474;0.016057115;0.011015928
CAMPO NOVO;Diesel TPP;-10.575604; -63.611822;0.00587831;0.015797959;0.010838135
PORTEL;Diesel TPP;-1.955723;-50.811794;0.005869901;0.015775358;0.01082263
ALENQUER;Diesel TPP;-1.943150;-54.743077;0.005815238;0.015628453;0.010721846
ALMEIRIM;Diesel TPP;-1.524171;-52.581201;0.005792532;0.015567431;0.010679982
NOVO AIRÃO;Diesel TPP;-2.639329;-60.947908;0.005721331;0.015376078;0.010548704
SALVATERRA;Diesel TPP;-0.766388;-48.678853;0.005689094;0.015289441;0.010489268
NOVO DATA CENTER - BM&FBOVESPA;Diesel TPP;-23.435113;-46.917703;0.005675919;0.015254033;0.010464976
SHOPPING PORTO VELHO;Diesel TPP;-8.731605;-63.904002;0.005627424;0.015123702;0.010375563
OESP;Diesel TPP;-23.550923;-46.633751;0.0056064;0.0150672;0.0103368
CONDOMÍNIO E-TOWER SÃO PAULO;Diesel TPP;-23.596430;-46.690444;0.0056064;0.0150672;0.0103368
CONDOMÍNIO SP MARKET CENTER;Diesel TPP;-23.568778;-46.701458;0.0056064;0.0150672;0.0103368
CHRIS CINTOS;Diesel TPP;-23.610533;-46.664219;0.0056064;0.0150672;0.0103368
AEROPORTO INTERNACIONAL DE VIRACOPOS - CAMPINAS;Diesel TPP;-22.911882;-47.027533;0.005417184;0.014558682;0.009987933
3M ITAPETININGA;Diesel TPP;-23.593264;-48.027241;0.005382144;0.014464512;0.009923328
TECUMSEH BAIRRO VILA IZABEL;Diesel TPP;-22.031882;-47.879572;0.005382144;0.014464512;0.009923328
TECUMSEH BAIRRO JARDIM JOCKEY CLUBE;Diesel TPP;-22.027109;-47.877855;0.005382144;0.014464512;0.009923328
JURUENA;Diesel TPP;-10.320624;-58.499873;0.005363671;0.014414866;0.009889268
TAPAUÁ;Diesel TPP;-5.631274;-63.184219;0.005298048;0.014238504;0.009768276
MERCK;Diesel TPP;-22.926712;-47.112203;0.005256;0.0141255;0.00969075
DORI ALIMENTOS;Diesel TPP;-22.249909;-49.933835;0.005256;0.0141255;0.00969075
BEBIDAS IPIRANGA;Diesel TPP;-21.247160;-47.856830;0.005256;0.0141255;0.00969075
URUCARÁ;Diesel TPP;-2.531539;-57.745604;0.005256;0.0141255;0.00969075
JACI-PARANÁ;Diesel TPP;-8.720915;-63.859885;0.00518592;0.01393716;0.00956154
ABATEDOURO SÃO SALVADOR;Diesel TPP;-16.020508;-49.789613;0.005169101;0.013891958;0.00953053
CONIEXPRESS;Diesel TPP;-16.409047;-49.216906;0.005169101;0.013891958;0.00953053
TERRA SANTA;Diesel TPP;-2.103531;-56.482575;0.005114158;0.0137443;0.009429229
QUERÊNCIA DO NORTE;Diesel TPP;-12.578725;-52.211317;0.005082202;0.013658417;0.009370309
BUETTNER;Diesel TPP;-27.100470;-48.905775;0.00504576;0.01356048;0.00930312
CENTRO ALTERNATIVO CAMPINAS;Diesel TPP;-22.928892;-47.142102;0.00504576;0.01356048;0.00930312
SHOPPING NOVA AMÉRICA;Diesel TPP;-22.936877;-43.195644;0.00504576;0.01356048;0.00930312
CIF MINERAÇÃO;Diesel TPP;-21.768340;-42.536335;0.00504576;0.01356048;0.00930312
NOVA BANDEIRANTES;Diesel TPP;-9.897107;-57.776753;0.005041555;0.01354918;0.009295367
CEDASA;Diesel TPP;-22.460028;-47.521093;0.004999507;0.013436176;0.009217841
FONTE BOA;Diesel TPP;-2.521763;-66.095794;0.00497568;0.01337214;0.00917391
UNIPAC;Diesel TPP;-22.067831;-50.177355;0.0049056;0.0131838;0.0090447
MANTECORP IQF;Diesel TPP;-22.906204;-43.705135;0.004778054;0.012841021;0.008809538
HYPERMARCAS;Diesel TPP;-22.853064;-43.291775;0.004778054;0.012841021;0.008809538
MUANÁ;Diesel TPP;-1.531357;-49.221777;0.004776653;0.012837254;0.008806954
VALE DO ANARI;Diesel TPP;-9.861545;-62.171376;0.004743014;0.012746851;0.008744933
SHOPPING PARQUE DAS BANDEIRAS;Diesel TPP;-22.960649;-47.080225;0.004702368;0.012637614;0.008669991
ENVIRA;Diesel TPP;-7.437394;-70.028593;0.004663123;0.012532144;0.008597633
EDITORA O DIA;Diesel TPP;-22.958375;-43.192211;0.00462528;0.01243044;0.00852786
BARREIRINHA;Diesel TPP;-2.773831;-57.036443;0.004541184;0.012204432;0.008372808
MARFRIG ALEGRETE;Diesel TPP;-29.795184;-55.782715;0.00448512;0.01205376;0.00826944
MARFRIG BAGÉ;Diesel TPP;-31.315991;-54.091793;0.00448512;0.01205376;0.00826944
SENADO FEDERAL;Diesel TPP;-15.720544;-48.153000;0.00448512;0.01205376;0.00826944
TAD;Diesel TPP;-13.832807;-56.090274;0.00448512;0.01205376;0.00826944
RIO PRETO DA EVA;Diesel TPP;-2.706233;-59.692852;0.00448512;0.01205376;0.00826944
ITAMINAS;Diesel TPP;-20.034147;-44.133854;0.00448512;0.01205376;0.00826944
JUTAÍ;Diesel TPP;-2.745104;-66.767077;0.004480915;0.01204246;0.008261687
ABUNÃ;Diesel TPP;-8.795005;-63.816069;0.004457088;0.011978424;0.008217756
APIACÁS;Diesel TPP;-9.569182;-57.393008;0.004412237;0.011857886;0.008135062
BERURI;Diesel TPP;-3.902587;-61.367842;0.004339354;0.011662013;0.008000683
MANAQUIRI;Diesel TPP;-3.437212;-60.453805;0.004316928;0.011601744;0.007959336
ITAPIRANGA;Diesel TPP;-2.743313;-58.028349;0.004307117;0.011575376;0.007941247
PASTIFÍCIO SANTA AMÁLIA;Diesel TPP;-21.678983;-45.920358;0.004297306;0.011549009;0.007923157
BASF GUARATINGUETÁ;Diesel TPP;-22.791766;-45.198331;0.00427488;0.01148874;0.00788181
NORTH SHOPPING JÓQUEI;Diesel TPP;-3.715721;-38.592939;0.0042048;0.0113004;0.0077526
MENU;Diesel TPP;-21.264631;-50.637280;0.0042048;0.0113004;0.0077526
TORRE E;Diesel TPP;-23.576554;-46.625080;0.0042048;0.0113004;0.0077526
SÃO PAULO DE OLIVENÇA;Diesel TPP;-3.468233;-68.953504;0.004190784;0.011262732;0.007726758
SHOPPING CENTER IGUATEMI BELÉM;Diesel TPP;-1.333303;-48.463786;0.004148736;0.011149728;0.007649232
ETERNIT;Diesel TPP;-25.293366;-49.232211;0.004148736;0.011149728;0.007649232
PAUINI;Diesel TPP;-7.713920;-66.992006;0.004115098;0.011059325;0.007587211
PLASTSEVEN;Diesel TPP;-22.162829;-42.420787;0.004081459;0.010968922;0.00752519
SÃO SEBASTIÃO DA BOA VISTA;Diesel TPP;-1.719577;-49.530417;0.004081459;0.010968922;0.00752519
MINERAÇÃO ESPERANÇA;Diesel TPP;-20.154173;-44.200883;0.004036608;0.010848384;0.007442496
AFUÁ;Diesel TPP;-0.164198;-50.394948;0.004026516;0.010821263;0.00742389
SOCIEDADE DE EDUCAÇÃO TIRADENTES;Diesel TPP;-10.887326;-37.075915;0.00392448;0.01054704;0.00723576
GOIÂNIA SHOPPING;Diesel TPP;-16.640173;-49.309479;0.00392448;0.01054704;0.00723576
NHAMUNDÁ;Diesel TPP;-2.194577;-56.710883;0.00392448;0.01054704;0.00723576
LUBRASIL;Diesel TPP;-22.658411;-47.681570;0.00392448;0.01054704;0.00723576
RENOSA;Diesel TPP;-15.605338;-56.156238;0.003868416;0.010396368;0.007132392
EXTRA CARAGUATATUBA;Diesel TPP;-23.622874;-45.437570;0.003812352;0.010245696;0.007029024
GRAND HYATT SÃO PAULO;Diesel TPP;-23.616192;-46.697323;0.003812352;0.010245696;0.007029024
BERGAMINI;Diesel TPP;-23.511560;-46.599268;0.003812352;0.010245696;0.007029024
AEROPORTO INTERNACIONAL SALGADO FILHO;Diesel TPP;-30.207990;-51.104704;0.003789926;0.010185427;0.006987677
UARINI;Diesel TPP;-2.979154;-65.159533;0.003789926;0.010185427;0.006987677
CANATIBA TUPIS;Diesel TPP;-22.727795;-47.418894;0.00378432;0.01017036;0.00697734
NOVA MARINGÁ;Diesel TPP;-13.034835;-57.050010;0.003760493;0.010106324;0.006933409
IPIXUNA;Diesel TPP;-7.047382;-71.686624;0.003739469;0.010049822;0.006894646
PONTA DE PEDRAS;Diesel TPP;-1.401442;-48.868259;0.003727135;0.010016675;0.006871905
TISHMAN SPYER;Diesel TPP;-23.489810;-46.841152;0.00371424;0.00998202;0.00684813
SILVES;Diesel TPP;-2.874255;-58.435197;0.003674995;0.00987655;0.006775772
PRAINHA;Diesel TPP;-1.802940;-53.480621;0.003656494;0.009826828;0.006741661
CURRALINHO;Diesel TPP;-1.808028;-49.790465;0.003646403;0.009799707;0.006723055
RORAINÓPOLIS;Diesel TPP;0.929133;-60.433308;0.00364416;0.00979368;0.00671892
GURUPÁ;Diesel TPP;-1.409937;-51.642252;0.003622856;0.009736425;0.00667964
PORTO DE MOZ;Diesel TPP;-1.754706;-52.233917;0.003596506;0.009665609;0.006631057
FARO;Diesel TPP;-2.172097;-56.740936;0.003595945;0.009664102;0.006630024
CONDOMÍNIO DO CASTANHEIRA SHOPPING CENTER;Diesel TPP;-1.326131;-48.371493;0.003588096;0.009643008;0.006615552
GRAFITE PEDRA AZUL;Diesel TPP;-16.005924;-41.265089;0.003571277;0.009597806;0.006584542
ESDEVA;Diesel TPP;-21.664142;-43.409815;0.003567072;0.009586506;0.006576789
RÁDIO E TELEVISÃO BANDEIRANTE;Diesel TPP;-23.596038;-46.708743;0.003567072;0.009586506;0.006576789
NOVA CALIFÓRNIA;Diesel TPP;-8.771306;-63.803065;0.003546048;0.009530004;0.006538026
NOVA MONTE VERDE;Diesel TPP;-9.903297;-57.739602;0.003506803;0.009424534;0.006465668
CAREIRO DA VÁRZEA;Diesel TPP;-3.193157;-59.820110;0.003504;0.009417;0.0064605
SHOPPING GUARARAPES;Diesel TPP;-8.156778;-34.963101;0.003504;0.009417;0.0064605
CINDACTA IV;Diesel TPP;-3.036777;-60.035768;0.003504;0.009417;0.0064605
PROCEDA;Diesel TPP;-23.622364;-46.669128;0.00349559;0.009394399;0.006444995
BARCELOS;Diesel TPP;-0.977890;-62.924233;0.003447936;0.009266328;0.006357132
CERÂMICA URUSSANGA;Diesel TPP;-28.511715;-49.321554;0.003431117;0.009221126;0.006326122
AEROPORTO INTERNACIONAL DE BRASÍLIA;Diesel TPP;-15.780022;-48.087082;0.003391872;0.009115656;0.006253764
PACARAIMA;Diesel TPP;4.477857;-61.135122;0.003375053;0.009070454;0.006222754
PORTO ALEGRE DO NORTE;Diesel TPP;-10.880433;-51.631500;0.00337281;0.009064428;0.006218619
SERGIFIL INDÚSTRIA TÊXTIL;Diesel TPP;-10.891877;-37.069907;0.00336384;0.00904032;0.00620208
ARAGUAIA SHOPPING;Diesel TPP;-16.609908;-49.287506;0.00336384;0.00904032;0.00620208
APARECIDA PARTE III;Diesel TPP;-2.997007;-60.059114;0.00336384;0.00904032;0.00620208
URUCURITUBA (TABOCAL);Diesel TPP;-2.674538;-57.663477;0.003321792;0.008927316;0.006124554
AEROPORTO INTERNACIONAL DO RECIFE;Diesel TPP;-8.029112;-34.927682;0.003318989;0.008919782;0.006119386
RIBEIRÃO CASCALHEIRA;Diesel TPP;-12.943109;-51.835839;0.00328535;0.008829379;0.006057365
NOVO REMANSO;Diesel TPP;-3.127241;-58.421454;0.00322368;0.00866364;0.00594366
TAPURAH;Diesel TPP;-12.543966;-56.469762;0.003197891;0.008594331;0.005896111
AEROPORTO INTERNACIONAL DE CONGONHAS - SÃO PAULO;Diesel TPP;-23.627541;-46.656546;0.003185837;0.008561936;0.005873887
SHOPPING PARK DOS LAGOS;Diesel TPP;-22.891574;-42.027713;0.003139584;0.008437632;0.005788608
DOCE MINEIRO;Diesel TPP;-18.717425;-49.208937;0.003139584;0.008437632;0.005788608
HOSPITAL SÃO LUIZ;Diesel TPP;-23.640408;-46.539924;0.003139584;0.008437632;0.005788608
ITAMARATI;Diesel TPP;-6.431983;-68.243140;0.003097536;0.008324628;0.005711082
FORTLEV SUL;Diesel TPP;-26.371032;-48.719494;0.00308352;0.00828696;0.00568524
AEROPORTO INTERNACIONAL TANCREDO NEVES;Diesel TPP;-19.651130;-43.961741;0.00308352;0.00828696;0.00568524
GEDORE;Diesel TPP;-29.744071;-51.154120;0.00308352;0.00828696;0.00568524
AJ RORATO;Diesel TPP;-23.926752;-52.502307;0.003069504;0.008249292;0.005659398
SÃO SEBASTIÃO DO UATUMÃ;Diesel TPP;-1.974621;-58.915137;0.003061094;0.008226691;0.005643893
SANTO ANTÔNIO DO IÇÁ;Diesel TPP;-3.108103;-67.954546;0.003058291;0.008219158;0.005638724
COMBUSTOL;Diesel TPP;-23.489971;-46.754845;0.00304848;0.00819279;0.005620635
OEIRAS DO PARÁ;Diesel TPP;-2.007466;-49.861040;0.003038669;0.008166422;0.005602546
SONDA - SÃO BERNARDO;Diesel TPP;-23.674315;-46.560604;0.003027456;0.008136288;0.005581872
CANUTAMA;Diesel TPP;-7.501469;-63.822270;0.002915328;0.007834944;0.005375136
TOTVS;Diesel TPP;-23.572935;-46.585535;0.002915328;0.007834944;0.005375136
TONANTINS;Diesel TPP;-2.795679;-67.652313;0.002901312;0.007797276;0.005349294
BOA VISTA DO RAMOS;Diesel TPP;-2.973811;-57.579969;0.002890099;0.007767142;0.00532862
ADRIA;Diesel TPP;-21.269711;-48.310999;0.002859264;0.007684272;0.005271768
SOCIEDADE HOSPITALAR SAMARITANO;Diesel TPP;-23.539039;-46.661402;0.002857021;0.007678245;0.005267633
SHOPPING PARK EUROPEU;Diesel TPP;-26.975036;-49.091438;0.002848051;0.007654138;0.005251094
TRANSTECHNOLOGY;Diesel TPP;-23.679090;-46.624999;0.002848051;0.007654138;0.005251094
SHOPPING PARAUAPEBAS;Diesel TPP;-6.071226;-49.898588;0.002848051;0.007654138;0.005251094
DHB COMPONENTES AUTOMOTIVOS (UNIDADE 2);Diesel TPP;-30.153382;-51.163755;0.002848051;0.007654138;0.005251094
INDUSTRIAL CERÂMICOS;Diesel TPP;-22.357001;-47.506296;0.002848051;0.007654138;0.005251094
MVC COMPONENTES PLÁSTICOS;Diesel TPP;-25.515157;-49.145193;0.002848051;0.007654138;0.005251094
ALTERO DESIGN;Diesel TPP;-29.630709;-50.991177;0.002848051;0.007654138;0.005251094
CASTELO BRANCO OFFICE PARK;Diesel TPP;-23.495477;-46.943462;0.00283824;0.00762777;0.005233005
AEROPORTO INTERNACIONAL DE SALVADOR;Diesel TPP;-12.912192;-38.331891;0.002835437;0.007620236;0.005227837
BLUE TREE PARK ANGRA DOS REIS;Diesel TPP;-22.998215;-44.309441;0.0028032;0.0075336;0.0051684
CABO DE SANTO AGOSTINHO;Diesel TPP;-8.286659;-35.022783;0.0028032;0.0075336;0.0051684
SÍNCROTRON;Diesel TPP;-22.936838;-47.058042;0.0028032;0.0075336;0.0051684
CIA DE ALIMENTOS IBITURUNA;Diesel TPP;-18.836201;-41.909986;0.0028032;0.0075336;0.0051684
BYK;Diesel TPP;-20.892988;-49.594357;0.0028032;0.0075336;0.0051684
INDÚSTRIA DE FELTROS SANTA FÉ;Diesel TPP;-23.532591;-46.198742;0.0028032;0.0075336;0.0051684
SANTA FÉ;Diesel TPP;-23.542192;-46.172649;0.0028032;0.0075336;0.0051684
HUDTELFA I;Diesel TPP;-22.788809;-47.298138;0.0028032;0.0075336;0.0051684
TECELAGEM DE FITAS SANTA JÚLIA;Diesel TPP;-22.774249;-47.258313;0.0028032;0.0075336;0.0051684
CONDOMÍNIO DO EDIFÍCIO BARÃO DE MAUÁ II;Diesel TPP;-22.987456;-43.360439;0.0028032;0.0075336;0.0051684
CONDOMÍNIO EDIFÍCIOS NEW YORK E LOS ANGELES;Diesel TPP;-23.533753;-46.563626;0.0028032;0.0075336;0.0051684
VIDEPLAST;Diesel TPP;-27.009918;-51.144471;0.0028032;0.0075336;0.0051684
ASSIS BRASIL;Diesel TPP;-10.938410;-69.572972;0.002802079;0.007530587;0.005166333
JURUÁ;Diesel TPP;-3.477284;-66.061638;0.002800397;0.007526066;0.005163232
GAÚCHA DO NORTE;Diesel TPP;-13.196199;-53.255058;0.002761152;0.007420596;0.005090874
MARAÃ;Diesel TPP;-1.853893;-65.579779;0.002758349;0.007413062;0.005085706
ASSOCIAÇÃO PRÓ-ENSINO NOVO HANBURGO;Diesel TPP;-29.669996;-51.119998;0.00272471;0.007322659;0.005023685
LIMOEIRO;Diesel TPP;-1.888202;-66.995374;0.002705088;0.007269924;0.004987506
FIBRASA NORDESTE;Diesel TPP;-7.911566;-34.890608;0.002691072;0.007232256;0.004961664
GRANJA BRASÍLIA;Diesel TPP;-19.959967;-44.198186;0.002691072;0.007232256;0.004961664
SANSUY;Diesel TPP;-12.715164;-38.325344;0.002691072;0.007232256;0.004961664
CRISTALINA ALIMENTOS;Diesel TPP;-16.777212;-47.606300;0.002691072;0.007232256;0.004961664
HOSPITAL BARRA D´OR;Diesel TPP;-22.985559;-43.274608;0.002691072;0.007232256;0.004961664
CONDOMÍNIO SHOPPING CENTER LAPA;Diesel TPP;-12.986505;-38.465255;0.002691072;0.007232256;0.004961664
BERGAMAIS;Diesel TPP;-23.533595;-46.599268;0.002691072;0.007232256;0.004961664
MORUMBI CORPORATE ADMINISTRAÇÃO;Diesel TPP;-23.592443;-46.615747;0.00266304;0.00715692;0.00490998
SANTA IZABEL DO RIO NEGRO;Diesel TPP;-0.272464;-65.475361;0.002612582;0.007021315;0.004816949
MERCOCÍTRICO;Diesel TPP;-21.477928;-47.356286;0.00259296;0.00696858;0.00478077
SANSUY;Diesel TPP;-23.646709;-46.848321;0.00255792;0.00687441;0.004716165
NUTRIBEM;Diesel TPP;-21.019246;-49.498074;0.002550912;0.006855576;0.004703244
MARFRIG;Diesel TPP;-30.348569;-54.309344;0.002550912;0.006855576;0.004703244
TORRE D;Diesel TPP;-23.530290;-46.704388;0.002550912;0.006855576;0.004703244
ROYAL PALM PLAZA;Diesel TPP;-22.886625;-47.093529;0.00252288;0.00678024;0.00465156
CONDOMÍNIO CIVIL PANTANAL SHOPPING;Diesel TPP;-15.581522;-56.081432;0.00252288;0.00678024;0.00465156
PSJ;Diesel TPP;-23.270239;-45.956530;0.00252288;0.00678024;0.00465156
SONDA - SANTO AMARO;Diesel TPP;-23.654843;-46.700499;0.00252288;0.00678024;0.00465156
BANCO SANTANDER BRASIL;Diesel TPP;-23.534067;-46.654263;0.00252288;0.00678024;0.00465156
SHOPPING PRAIA DA COSTA;Diesel TPP;-20.343580;-40.289363;0.00252288;0.00678024;0.00465156
CAAPIRANGA;Diesel TPP;-3.327627;-61.212246;0.002503258;0.006727505;0.004615381
PLASDIL - PLÁSTICOS DIVINÓPOLIS;Diesel TPP;-20.614738;-42.145016;0.002483635;0.00667477;0.004579202
SHOPPING BOA VISTA;Diesel TPP;-8.059027;-34.892663;0.0024528;0.0065919;0.00452235
ALVARÃES;Diesel TPP;-3.211967;-64.805540;0.002421965;0.00650903;0.004465498
CACHOEIRA DO ARARI;Diesel TPP;-0.990830;-48.895388;0.002421965;0.00650903;0.004465498
MANOEL URBANO;Diesel TPP;-8.831575;-69.264516;0.002368143;0.006364385;0.004366264
REFRIGERANTES DO TRIÂNGULO;Diesel TPP;-18.882770;-48.196365;0.002358893;0.006339524;0.004349209
INDÚSTRIA DE CAL CRUZEIRO;Diesel TPP;-20.451532;-45.554619;0.002354688;0.006328224;0.004341456
SUPERMERCADO MUNDIAL;Diesel TPP;-22.879636;-43.474422;0.002354688;0.006328224;0.004341456
JURITI;Diesel TPP;-2.172659;-56.091834;0.00234796;0.006310143;0.004329052
HOSPITAL DE BASE;Diesel TPP;-20.852912;-49.355233;0.002335066;0.006275489;0.004305277
CURUÁ;Diesel TPP;-1.888886;-55.124777;0.002317686;0.00622878;0.004273233
YOKI ALIMENTOS;Diesel TPP;-22.236527;-45.929189;0.00231264;0.00621522;0.00426393
ASPEBRAS BAHIA;Diesel TPP;-12.801785;-38.390779;0.002298624;0.006177552;0.004238088
ROVEMA BANDEIRANTES;Diesel TPP;-8.748232;-63.818171;0.002287411;0.006147418;0.004217414
COMPONENT;Diesel TPP;-23.683018;-46.621224;0.002270592;0.006102216;0.004186404
REICHHOLD DO BRASIL;Diesel TPP;-23.538100;-46.177456;0.002270592;0.006102216;0.004186404
FUNFARME;Diesel TPP;-20.757915;-49.412911;0.002255174;0.006060781;0.004157978
KAISER - ARARAQUARA;Diesel TPP;-21.778026;-48.171860;0.00224256;0.00602688;0.00413472
MARFRIG CAPÃO;Diesel TPP;-31.835819;-52.571276;0.00224256;0.00602688;0.00413472
MARFRIG PARANAÍBA;Diesel TPP;-19.664312;-51.187585;0.00224256;0.00602688;0.00413472
CEASA-PE;Diesel TPP;-8.054948;-34.975747;0.00224256;0.00602688;0.00413472
COPA DOR;Diesel TPP;-22.942568;-43.376232;0.00224256;0.00602688;0.00413472
MARFRIG RIO VERDE;Diesel TPP;-17.776789;-50.911854;0.00224256;0.00602688;0.00413472
LATICÍNIO SCALA;Diesel TPP;-19.866439;-47.457835;0.00224256;0.00602688;0.00413472
JARAGUÁ;Diesel TPP;-18.889267;-48.184005;0.00224256;0.00602688;0.00413472
RONDOLÂNDIA;Diesel TPP;-10.846427;-61.458766;0.002239757;0.006019346;0.004129552
MARECHAL THAUMATURGO;Diesel TPP;-8.938069;-72.784890;0.002213687;0.005949284;0.004081485
ANAMÃ;Diesel TPP;-3.571428;-61.401310;0.002194906;0.005898809;0.004046857
FRIGOBET;Diesel TPP;-19.953674;-44.213121;0.002186496;0.005876208;0.004031352
SINTERAMA;Diesel TPP;-21.430631;-45.971563;0.002136038;0.005740603;0.003938321
ASSEMBLEIA PARAENSE;Diesel TPP;-1.413617;-48.392375;0.002136038;0.005740603;0.003938321
ZANOTTI PACATUBA;Diesel TPP;-3.891267;-38.609957;0.002136038;0.005740603;0.003938321
ATALAIA DO NORTE;Diesel TPP;-4.367257;-70.189269;0.002130432;0.005725536;0.003927984
DISTRIBUIDORA AMARAL;Diesel TPP;-20.137482;-44.865072;0.0021024;0.0056502;0.0038763
CORFIO;Diesel TPP;-26.788281;-51.000738;0.002074368;0.005574864;0.003824616
BIMBO DO BRASIL;Diesel TPP;-23.561606;-46.592401;0.002074368;0.005574864;0.003824616
ETERNIT SIMÕES FILHO;Diesel TPP;-12.795591;-38.399362;0.002074368;0.005574864;0.003824616
ADRIANA AGRÍCOLA;Diesel TPP;-16.944746;-53.536722;0.002046336;0.005499528;0.003772932
GERALDISCOS;Diesel TPP;-23.592287;-46.641385;0.00204073;0.005484461;0.003762595
USINA ALA MEGA;Diesel TPP;-23.532494;-46.700955;0.00204073;0.005484461;0.003762595
ALA POLO;Diesel TPP;-23.582847;-46.686878;0.00204073;0.005484461;0.003762595
TILIBRA;Diesel TPP;-22.303263;-49.074230;0.00203232;0.00546186;0.00374709
MORUMBI SHOPPING;Diesel TPP;-23.522074;-46.623659;0.00203232;0.00546186;0.00374709
SE04;Diesel TPP;-23.531234;-46.682415;0.00203232;0.00546186;0.00374709
MORUMBI CORPORATE TORRE ALTA;Diesel TPP;-23.591185;-46.599954;0.00203232;0.00546186;0.00374709
MORUMBI CORPORATE TORRE BAIXA;Diesel TPP;-23.549333;-46.584848;0.00203232;0.00546186;0.00374709
GUARIBA;Diesel TPP;-9.131372;-60.389363;0.002029517;0.005454326;0.003741922
FIBRASA;Diesel TPP;-7.905615;-34.896273;0.002018304;0.005424192;0.003721248
CORY;Diesel TPP;-21.366706;-46.942078;0.002018304;0.005424192;0.003721248
COOPERSUL;Diesel TPP;-31.762667;-52.486035;0.002018304;0.005424192;0.003721248
ITAPICURU;Diesel TPP;-4.465218;-43.887157;0.002018304;0.005424192;0.003721248
NESTLÉ;Diesel TPP;-22.473422;-47.460322;0.002018304;0.005424192;0.003721248
SEDE 1;Diesel TPP;-23.611174;-46.909449;0.002018304;0.005424192;0.003721248
MARABÁ GUSA SIDERÚRGICA;Diesel TPP;-5.369499;-49.133968;0.002018304;0.005424192;0.003721248
SÃO CARLOS;Diesel TPP;-8.787932;-63.893016;0.002018304;0.005424192;0.003721248
EXTRA SÃO JOSÉ DOS CAMPOS;Diesel TPP;-23.199920;-45.809454;0.002018304;0.005424192;0.003721248
SUPERCENTER GRANJA VIANA;Diesel TPP;-23.595394;-46.900125;0.002018304;0.005424192;0.003721248
KAPPESBERG;Diesel TPP;-29.476235;-51.418246;0.002018304;0.005424192;0.003721248
JACAREACANGA;Diesel TPP;-6.224844;-57.765036;0.001986067;0.005337556;0.003661811
EXTRA ARACAJU;Diesel TPP;-10.940589;-37.067332;0.001973453;0.005303654;0.003638554
SUPERCENTER TIJUCA;Diesel TPP;-22.981767;-43.227230;0.001973453;0.005303654;0.003638554
PACARANA;Diesel TPP;-11.492049;-60.997724;0.001939814;0.005213251;0.003576533
AMBEV - JOÃO PESSOA;Diesel TPP;-26.499603;-49.130280;0.00189216;0.00508518;0.00348867
MOTOROLA SP;Diesel TPP;-22.692595;-46.994837;0.001880947;0.005055046;0.003467996
CONDOMÍNIO CANOAS SHOPPING CENTER;Diesel TPP;-29.924546;-51.192334;0.001869734;0.005024911;0.003447323
GRANJA VIANA;Diesel TPP;-23.611906;-46.918070;0.001850112;0.004972176;0.003411144
BCP;Diesel TPP;-23.609746;-46.662539;0.001836096;0.004934508;0.003385302
EDIFÍCIO ODEBRECHT;Diesel TPP;-23.568530;-46.673769;0.00182208;0.00489684;0.00335946
BASÍLICA NOSSA SENHORA DA CONCEIÇÃO APARECIDA;Diesel TPP;-22.843809;-45.235071;0.001816474;0.004881773;0.003349123
SERGIPE INDUSTRIAL FILIAL;Diesel TPP;-10.910925;-37.100806;0.001816474;0.004881773;0.003349123
CALÇOENE;Diesel TPP;2.487348;-50.971732;0.001816474;0.004881773;0.003349123
INJECT CAMPO BOM;Diesel TPP;-29.676904;-51.037040;0.001816474;0.004881773;0.003349123
FUGA COUROS;Diesel TPP;-28.454245;-52.197437;0.001816474;0.004881773;0.003349123
SARGEL;Diesel TPP;-21.470643;-47.024127;0.001816474;0.004881773;0.003349123
GRUPO GERADORES MOORE;Diesel TPP;-23.545942;-46.790236;0.001816474;0.004881773;0.003349123
CROMEX - BA;Diesel TPP;-12.776674;-38.409490;0.001816474;0.004881773;0.003349123
HOTEL HILTON MORUMBI;Diesel TPP;-23.610303;-46.696883;0.001794048;0.004821504;0.003307776
GREIF;Diesel TPP;-23.668872;-46.714573;0.001794048;0.004821504;0.003307776
ALCON LABORATÓRIOS DO BRASIL;Diesel TPP;-23.540677;-46.601048;0.001773024;0.004765002;0.003269013
SHOPPING CENTER GRANDE RIO;Diesel TPP;-22.781403;-43.382255;0.001752;0.0047085;0.00323025
EMATEX;Diesel TPP;-19.758150;-44.076220;0.001747795;0.0046972;0.003222497
COMPLEM;Diesel TPP;-17.723121;-49.106984;0.001746394;0.004693433;0.003219913
AMATURÁ;Diesel TPP;-3.366057;-68.199309;0.001735181;0.004663298;0.00319924
PEIXOTO GONÇALVES;Diesel TPP;-10.324425;-36.582218;0.001723968;0.004633164;0.003178566
HIPER BOMPREÇO ROTULA;Diesel TPP;-12.950037;-38.442424;0.001723968;0.004633164;0.003178566
BAGRE;Diesel TPP;-1.905640;-50.197114;0.001712755;0.00460303;0.003157892
NORMÂNDIA;Diesel TPP;3.914835;-59.606802;0.001709952;0.004595496;0.003152724
GEOLAB;Diesel TPP;-16.358879;-48.962675;0.00168192;0.00452016;0.00310104
BRASILGRÁFICA;Diesel TPP;-23.500515;-46.931789;0.00168192;0.00452016;0.00310104
OCEANO;Diesel TPP;-23.362893;-46.869749;0.00168192;0.00452016;0.00310104
SABE ALIMENTOS;Diesel TPP;-10.426650;-36.955894;0.00168192;0.00452016;0.00310104
TERMINAL CENTRAL;Diesel TPP;-18.871075;-48.188125;0.00168192;0.00452016;0.00310104
HY-LINE;Diesel TPP;-20.540358;-49.314367;0.001642675;0.00441469;0.003028682
UBERLÂNDIA REFRESCOS;Diesel TPP;-18.877572;-48.176452;0.00161184;0.00433182;0.00297183
COTIJUBA;Diesel TPP;-1.428719;-48.476833;0.001604832;0.004312986;0.002958909
TELESP;Diesel TPP;-23.495477;-46.954448;0.001569792;0.004218816;0.002894304
BOMPREÇO FORTALEZA;Diesel TPP;-3.765054;-38.474836;0.001569792;0.004218816;0.002894304
MAFRIG PIRENÓPOLIS;Diesel TPP;-15.851951;-48.955479;0.001569792;0.004218816;0.002894304
VIVICON;Diesel TPP;-23.518485;-46.686128;0.001569792;0.004218816;0.002894304
GONÇALVES SALLES;Diesel TPP;-20.894337;-47.001141;0.001569792;0.004218816;0.002894304
CAESAR PARK HOTEL GUARULHOS;Diesel TPP;-23.450602;-46.489216;0.001562784;0.004199982;0.002881383
ANAJÁS;Diesel TPP;-0.988152;-49.942301;0.001558579;0.004188682;0.00287363
SANTA MARIA DAS BARREIRAS;Diesel TPP;-8.854901;-49.725644;0.001558579;0.004188682;0.00287363
FIBRASA EMBALAGENS;Diesel TPP;-20.123514;-40.309544;0.00154176;0.00414348;0.00284262
DAKOTA CALÇADOS;Diesel TPP;-10.740796;-37.812926;0.001534752;0.004124646;0.002829699
GRAFITE SALTO DA DIVISA;Diesel TPP;-16.000087;-39.947581;0.001530547;0.004113346;0.002821946
STF ANEXO II;Diesel TPP;-15.684849;-48.104935;0.001524941;0.004098278;0.00281161
PORTO WALTER;Diesel TPP;-8.267859;-72.753861;0.00151513;0.004071911;0.00279352
GB SILVIO TEIXEIRA;Diesel TPP;-10.927612;-37.065100;0.001513728;0.004068144;0.002790936
WAL-MART CAMPOS;Diesel TPP;-21.773274;-41.298784;0.001513728;0.004068144;0.002790936
HIPERIDEAL;Diesel TPP;-15.603986;-56.080095;0.001513728;0.004068144;0.002790936
AEROPORTO INTERNACIONAL PINTO MARTINS - TERMINAL DE PASSAGEIROS (TPS-1);Diesel TPP;-14.955448;-46.229342;0.001513728;0.004068144;0.002790936
MUTUM PARANÁ;Diesel TPP;-8.687657;-63.872245;0.001513728;0.004068144;0.002790936
WAL-MART MORUMBI;Diesel TPP;-23.586354;-46.721740;0.001513728;0.004068144;0.002790936
BUDAI;Diesel TPP;-23.534835;-46.903114;0.001500273;0.004031983;0.002766128
POLIFRIGOR;Diesel TPP;-22.225957;-48.722775;0.00148009;0.003977741;0.002728915
TKS TATUAPÉ;Diesel TPP;-23.531308;-46.565649;0.00148009;0.003977741;0.002728915
CENTRO ADMINISTRATIVO FARROUPILHA;Diesel TPP;-30.098744;-51.152769;0.001459066;0.003921239;0.002690152
WALMART BIG BRUSQUE;Diesel TPP;-27.104116;-48.922930;0.001457664;0.003917472;0.002687568
MACACO BRANCO;Diesel TPP;-22.938623;-47.055557;0.001457664;0.003917472;0.002687568
WAL MART CHAPECÓ;Diesel TPP;-27.079639;-52.591784;0.001457664;0.003917472;0.002687568
CALAMA;Diesel TPP;-8.714960;-63.889401;0.001456262;0.003913705;0.002684984
AEROPORTO INTERNACIONAL DE RIO BRANCO;Diesel TPP;-9.969593;-67.869205;0.001446451;0.003887338;0.002666894
HOSPITAL SANTA HELENA;Diesel TPP;-23.754368;-46.329982;0.001426268;0.003833096;0.002629682
CIA MINUANO;Diesel TPP;-29.369483;-51.941623;0.001424026;0.003827069;0.002625547
FUGA COUROS - CAMARGO;Diesel TPP;-28.589642;-52.200388;0.001424026;0.003827069;0.002625547
MIRACEMA NUODEX;Diesel TPP;-22.867945;-47.027339;0.001424026;0.003827069;0.002625547
FÁBRICA DE IDEIAS INDÚSTRIA E COMÉRCIO;Diesel TPP;-23.641226;-46.854842;0.001424026;0.003827069;0.002625547
BIMBO;Diesel TPP;-8.198093;-35.550698;0.001424026;0.003827069;0.002625547
DHB COMPONENTES AUTOMOTIVOS (UNIDADE 1);Diesel TPP;-30.122503;-51.213194;0.001424026;0.003827069;0.002625547
AEROPORTO INTERNACIONAL EDUARDO GOMES;Diesel TPP;-3.119231;-60.046467;0.001412813;0.003796934;0.002604874
CECONSUD;Diesel TPP;-10.880751;-37.084841;0.0014016;0.0037668;0.0025842
WAL MART BLUMENAU;Diesel TPP;-26.953004;-49.121651;0.0014016;0.0037668;0.0025842
WAL MART INDAIATUBA;Diesel TPP;-23.132656;-47.217431;0.0014016;0.0037668;0.0025842
BOMPREÇO MACEIÓ;Diesel TPP;-9.629124;-35.744454;0.0014016;0.0037668;0.0025842
DTCEA-MN;Diesel TPP;-3.130544;-60.013508;0.0014016;0.0037668;0.0025842
BOMPREÇO PASSO FUNDO;Diesel TPP;-28.256364;-52.386083;0.0014016;0.0037668;0.0025842
WALMART SANTA MARIA;Diesel TPP;-5.833723;-35.687266;0.0014016;0.0037668;0.0025842
SÃO JOÃO DA BALIZA;Diesel TPP;-27.271087;-48.840922;0.0014016;0.0037668;0.0025842
WAL MART TAUBATÉ;Diesel TPP;-23.064306;-45.585714;0.0014016;0.0037668;0.0025842
BIG UMUARAMA;Diesel TPP;-23.767237;-53.308926;0.0014016;0.0037668;0.0025842
GERADOR DE EMERGÊNCIA;Diesel TPP;-20.012144;-43.864240;0.001395994;0.003751733;0.002573863
PARANORTE;Diesel TPP;-11.257879;-57.508095;0.001379174;0.003706531;0.002542853
AEROPORTO INTERNACIONAL AFONSO PENA;Diesel TPP;-25.514538;-49.166479;0.001379174;0.003706531;0.002542853
FORTIK NORDESTE;Diesel TPP;-12.332500;-38.763738;0.001362355;0.00366133;0.002511842
GOODYEAR - DIVISÃO SPIRAFLEX;Diesel TPP;-23.520131;-46.800536;0.001362355;0.00366133;0.002511842
AVON;Diesel TPP;-23.539648;-46.767577;0.001362355;0.00366133;0.002511842
INDÚSTRIA DE PAPÉIS IRMÃOS SIQUEIRA;Diesel TPP;-22.382185;-44.973459;0.001362355;0.00366133;0.002511842
MÜLLER;Diesel TPP;-21.981580;-47.425984;0.001362355;0.00366133;0.002511842
IAUARETÊ;Diesel TPP;-0.002299;-67.093508;0.001359552;0.003653796;0.002506674
LUBRIZOL;Diesel TPP;-22.767309;-43.397824;0.001345536;0.003616128;0.002480832
COMPLEXO DE CAMAÇARI;Diesel TPP;-12.711522;-38.332811;0.001345536;0.003616128;0.002480832
WAL MART COMBO- GOIÂNIA;Diesel TPP;-16.721734;-49.335571;0.001345536;0.003616128;0.002480832
VESUVIUS;Diesel TPP;-22.965330;-43.368679;0.001345536;0.003616128;0.002480832
SENDAS DISTRIBUIDORA I;Diesel TPP;-22.879953;-43.252636;0.001345536;0.003616128;0.002480832
MANFRIM;Diesel TPP;-22.914370;-49.628446;0.001345536;0.003616128;0.002480832
WAL MART VILA GUILHERME;Diesel TPP;-23.516416;-46.569087;0.001345536;0.003616128;0.002480832
ARTHI;Diesel TPP;-23.541893;-46.609583;0.001345536;0.003616128;0.002480832
