Name;Sector;Lat;Long;NOx-low (Gg/year);NOx-high (Gg/year);NOx-mean (Gg/year);SOx-low(Gg/year);SOx-high(Gg/year);SOx-mean(Gg/year);CO-low(Gg/year);CO-high(Gg/year);CO-mean(Gg/year);PM-low(Gg/year);PM-high(Gg/year);PM-mean(Gg/year);TOC-low(Gg/year);TOC-high(Gg/year);TOC-mean(Gg/year);CO2-low(Gg/year);CO2-high(Gg/year);CO2-mean(Gg/year)
ALTA MOGIANA;Bagasse TPP;-20.567944;-47.868641;0.12096;0.15552;0.13824;NA;NA;NA;NA;NA;NA;0.13824;2.02176;1.08;0.00009936;0.0001296;0.00011448;155.088;202.176;178.632
BARRALCOOL;Bagasse TPP;-15.033815;-57.214277;0.048384;0.062208;0.055296;NA;NA;NA;NA;NA;NA;0.055296;0.808704;0.432;0.000039744;0.00005184;0.000045792;62.0352;80.8704;71.4528
BATATAIS;Bagasse TPP;-20.745982;-47.569336;0.00628992;0.00808704;0.00718848;NA;NA;NA;NA;NA;NA;0.00718848;0.10513152;0.05616;5.16672E-06;6.7392E-06;5.95296E-06;8.064576;10.513152;9.288864
CAETÉ;Bagasse TPP;-9.776442;-36.086844;0.05773824;0.07423488;0.06598656;NA;NA;NA;NA;NA;NA;0.06598656;0.96505344;0.51552;4.74278E-05;6.18624E-05;5.46451E-05;74.028672;96.505344;85.267008
COLOMBO ARIRANHA;Bagasse TPP;-21.213352;-48.842033;0.1701504;0.2187648;0.1944576;NA;NA;NA;NA;NA;NA;0.1944576;2.8439424;1.5192;0.000139766;0.000182304;0.000161035;218.15712;284.39424;251.27568
CORONA;Bagasse TPP;-21.364469;-48.238975;0.0290304;0.0373248;0.0331776;NA;NA;NA;NA;NA;NA;0.0331776;0.4852224;0.2592;2.38464E-05;0.000031104;2.74752E-05;37.22112;48.52224;42.87168
ESTER;Bagasse TPP;-22.657480;-47.211152;0.07483392;0.09621504;0.08552448;NA;NA;NA;NA;NA;NA;0.08552448;1.25079552;0.66816;6.14707E-05;8.01792E-05;7.0825E-05;95.947776;125.079552;110.513664
CENTRAL ENERGÉTICA RIBEIRÃO PRETO (ANTIGA GALO BRAVO);Bagasse TPP;-21.141021;-47.878869;0.0145152;0.0186624;0.0165888;NA;NA;NA;NA;NA;NA;0.0165888;0.2426112;0.1296;1.19232E-05;0.000015552;1.37376E-05;18.61056;24.26112;21.43584
GALVANI;Bagasse TPP;-22.758781;-47.155066;0.0185472;0.0238464;0.0211968;NA;NA;NA;NA;NA;NA;0.0211968;0.3100032;0.1656;1.52352E-05;0.000019872;1.75536E-05;23.78016;31.00032;27.39024
IRACEMA;Bagasse TPP;-22.586025;-47.529168;0.0225792;0.0290304;0.0258048;NA;NA;NA;NA;NA;NA;0.0258048;0.3773952;0.2016;1.85472E-05;0.000024192;2.13696E-05;28.94976;37.73952;33.34464
VIRGOLINO DE OLIVEIRA - ITAPIRA;Bagasse TPP;-22.411839;-46.808829;0.00935424;0.01202688;0.01069056;NA;NA;NA;NA;NA;NA;0.01069056;0.15634944;0.08352;7.68384E-06;1.00224E-05;8.85312E-06;11.993472;15.634944;13.814208
JARDEST;Bagasse TPP;-21.032484;-47.775844;0.0129024;0.0165888;0.0147456;NA;NA;NA;NA;NA;NA;0.0147456;0.2156544;0.1152;1.05984E-05;0.000013824;1.22112E-05;16.54272;21.56544;19.05408
JUNQUEIRA;Bagasse TPP;-20.048841;-47.748235;0.01161216;0.01492992;0.01327104;NA;NA;NA;NA;NA;NA;0.01327104;0.19408896;0.10368;9.53856E-06;1.24416E-05;1.09901E-05;14.888448;19.408896;17.148672
MARACAÍ;Bagasse TPP;-22.575942;-50.656559;0.075511296;0.097085952;0.086298624;NA;NA;NA;NA;NA;NA;0.086298624;1.262117376;0.674208;6.20271E-05;8.0905E-05;7.1466E-05;96.8162688;126.2117376;111.5140032
MB;Bagasse TPP;-20.729511;-48.055077;0.02644992;0.03400704;0.03022848;NA;NA;NA;NA;NA;NA;0.03022848;0.44209152;0.23616;2.17267E-05;2.83392E-05;2.5033E-05;33.912576;44.209152;39.060864
NARDINI;Bagasse TPP;-21.184680;-48.654292;0.0870912;0.1119744;0.0995328;NA;NA;NA;NA;NA;NA;0.0995328;1.4556672;0.7776;7.15392E-05;0.000093312;8.24256E-05;111.66336;145.56672;128.61504
SANTA CRUZ AB (ANTIGA OMETTO);Bagasse TPP;-21.754836;-48.078402;0.13934592;0.17915904;0.15925248;NA;NA;NA;NA;NA;NA;0.15925248;2.32906752;1.24416;0.000114463;0.000149299;0.000131881;178.661376;232.906752;205.784064
USINA DA PEDRA;Bagasse TPP;-21.241122;-47.566889;0.056448;0.072576;0.064512;NA;NA;NA;NA;NA;NA;0.064512;0.943488;0.504;0.000046368;0.00006048;0.000053424;72.3744;94.3488;83.3616
RAFARD;Bagasse TPP;-23.009110;-47.532166;0.08064;0.10368;0.09216;NA;NA;NA;NA;NA;NA;0.09216;1.34784;0.72;0.00006624;0.0000864;0.00007632;103.392;134.784;119.088
UNIVALEM;Bagasse TPP;-23.009110;-47.532166;0.0129024;0.0165888;0.0147456;NA;NA;NA;NA;NA;NA;0.0147456;0.2156544;0.1152;1.05984E-05;0.000013824;1.22112E-05;16.54272;21.56544;19.05408
PUMATY;Bagasse TPP;-8.627504;-35.528606;0.012966912;0.016671744;0.014819328;NA;NA;NA;NA;NA;NA;0.014819328;0.216732672;0.115776;1.06514E-05;1.38931E-05;1.22723E-05;16.6254336;21.6732672;19.1493504
VALE DO ROSÁRIO;Bagasse TPP;-20.740942;-48.055163;0.1564416;0.2011392;0.1787904;NA;NA;NA;NA;NA;NA;0.1787904;2.6148096;1.3968;0.000128506;0.000167616;0.000148061;200.58048;261.48096;231.03072
VIRALCOOL;Bagasse TPP;-21.049411;-48.262212;0.032256;0.041472;0.036864;NA;NA;NA;NA;NA;NA;0.036864;0.539136;0.288;0.000026496;0.00003456;0.000030528;41.3568;53.9136;47.6352
SÃO JOÃO;Bagasse TPP;-22.428728;-47.359755;0.0193536;0.0248832;0.0221184;NA;NA;NA;NA;NA;NA;0.0221184;0.3234816;0.1728;1.58976E-05;0.000020736;1.83168E-05;24.81408;32.34816;28.58112
SÃO JOSÉ;Bagasse TPP;-22.491557;-48.782191;0.136773504;0.175851648;0.156312576;NA;NA;NA;NA;NA;NA;0.156312576;2.286071424;1.221192;0.00011235;0.000146543;0.000129446;175.3631712;228.6071424;201.9851568
SÃO JOSÉ;Bagasse TPP;-22.860862;-47.624307;0.00774144;0.00995328;0.00884736;NA;NA;NA;NA;NA;NA;0.00884736;0.12939264;0.06912;6.35904E-06;8.2944E-06;7.32672E-06;9.925632;12.939264;11.432448
SÃO LUIZ;Bagasse TPP;-22.026160;-47.429182;0.11354112;0.14598144;0.12976128;NA;NA;NA;NA;NA;NA;0.12976128;1.89775872;1.01376;9.32659E-05;0.000121651;0.000107459;145.575936;189.775872;167.675904
SÃO MARTINHO;Bagasse TPP;-21.320081;-48.120490;0.1177344;0.1513728;0.1345536;NA;NA;NA;NA;NA;NA;0.1345536;1.9678464;1.0512;9.67104E-05;0.000126144;0.000111427;150.95232;196.78464;173.86848
BARRA GRANDE DE LENÇÓIS;Bagasse TPP;-22.627929;-48.752271;0.10144512;0.13042944;0.11593728;NA;NA;NA;NA;NA;NA;0.11593728;1.69558272;0.90576;8.33299E-05;0.000108691;9.60106E-05;130.067136;169.558272;149.812704
LDC BIOENERGIA LEME (ANTIGA COINBRA - CRESCIUMAL);Bagasse TPP;-22.205258;-47.386937;0.06386688;0.08211456;0.07299072;NA;NA;NA;NA;NA;NA;0.07299072;1.06748928;0.57024;5.24621E-05;6.84288E-05;6.04454E-05;81.886464;106.748928;94.317696
J PILON;Bagasse TPP;-23.171224;-47.746025;0.00612864;0.00787968;0.00700416;NA;NA;NA;NA;NA;NA;0.00700416;0.10243584;0.05472;5.03424E-06;6.5664E-06;5.80032E-06;7.857792;10.243584;9.050688
SÃO FRANCISCO;Bagasse TPP;-21.108655;-48.078612;0.04064256;0.05225472;0.04644864;NA;NA;NA;NA;NA;NA;0.04644864;0.67931136;0.36288;3.3385E-05;4.35456E-05;3.84653E-05;52.109568;67.931136;60.020352
LUCÉLIA;Bagasse TPP;-21.724491;-51.021143;0.02532096;0.03255552;0.02893824;NA;NA;NA;NA;NA;NA;0.02893824;0.42322176;0.22608;2.07994E-05;2.71296E-05;2.39645E-05;32.465088;42.322176;37.393632
BORTOLO CAROLO;Bagasse TPP;-21.009087;-47.993845;0.0129024;0.0165888;0.0147456;NA;NA;NA;NA;NA;NA;0.0147456;0.2156544;0.1152;1.05984E-05;0.000013824;1.22112E-05;16.54272;21.56544;19.05408
FURLAN;Bagasse TPP;-22.763612;-47.411725;0.00580608;0.00746496;0.00663552;NA;NA;NA;NA;NA;NA;0.00663552;0.09704448;0.05184;4.76928E-06;6.2208E-06;5.49504E-06;7.444224;9.704448;8.574336
SANTA ADÉLIA;Bagasse TPP;-21.252346;-48.325677;0.0677376;0.0870912;0.0774144;NA;NA;NA;NA;NA;NA;0.0774144;1.1321856;0.6048;5.56416E-05;0.000072576;6.41088E-05;86.84928;113.21856;100.03392
RUETTE;Bagasse TPP;-21.044503;-48.720099;0.0451584;0.0580608;0.0516096;NA;NA;NA;NA;NA;NA;0.0516096;0.7547904;0.4032;3.70944E-05;0.000048384;4.27392E-05;57.89952;75.47904;66.68928
IPIRANGA FILIAL DESCALVADO;Bagasse TPP;-21.910594;-47.617150;0.00487872;0.00627264;0.00557568;NA;NA;NA;NA;NA;NA;0.00557568;0.08154432;0.04356;4.00752E-06;5.2272E-06;4.61736E-06;6.255216;8.154432;7.204824
IPIRANGA - MOCOCA;Bagasse TPP;-21.467198;-47.002057;0.00677376;0.00870912;0.00774144;NA;NA;NA;NA;NA;NA;0.00774144;0.11321856;0.06048;5.56416E-06;7.2576E-06;6.41088E-06;8.684928;11.321856;10.003392
SÃO MANOEL;Bagasse TPP;-22.742186;-48.570088;0.02386944;0.03068928;0.02727936;NA;NA;NA;NA;NA;NA;0.02727936;0.39896064;0.21312;1.9607E-05;2.55744E-05;2.25907E-05;30.604032;39.896064;35.250048
ALBERTINA;Bagasse TPP;-21.147299;-47.989209;0.0068544;0.0088128;0.0078336;NA;NA;NA;NA;NA;NA;0.0078336;0.1145664;0.0612;5.6304E-06;0.000007344;6.4872E-06;8.78832;11.45664;10.12248
SANTA ELISA - UNIDADE II;Bagasse TPP;-21.151098;-48.007881;0.0064512;0.0082944;0.0073728;NA;NA;NA;NA;NA;NA;0.0073728;0.1078272;0.0576;5.2992E-06;0.000006912;6.1056E-06;8.27136;10.78272;9.52704
PAINEIRAS;Bagasse TPP;-21.011633;-40.830280;0.00516096;0.00663552;0.00589824;NA;NA;NA;NA;NA;NA;0.00589824;0.08626176;0.04608;4.23936E-06;5.5296E-06;4.88448E-06;6.617088;8.626176;7.621632
SÃO JOÃO DA BOA VISTA;Bagasse TPP;-21.974787;-46.793732;0.112896;0.145152;0.129024;NA;NA;NA;NA;NA;NA;0.129024;1.886976;1.008;0.000092736;0.00012096;0.000106848;144.7488;188.6976;166.7232
UNIALCO;Bagasse TPP;-21.264410;-50.636443;0.00580608;0.00746496;0.00663552;NA;NA;NA;NA;NA;NA;0.00663552;0.09704448;0.05184;4.76928E-06;6.2208E-06;5.49504E-06;7.444224;9.704448;8.574336
SANTA CÂNDIDA;Bagasse TPP;-22.154430;-48.519573;0.0467712;0.0601344;0.0534528;NA;NA;NA;NA;NA;NA;0.0534528;0.7817472;0.4176;3.84192E-05;0.000050112;4.42656E-05;59.96736;78.17472;69.07104
IBITIÚVA BIOENERGÉTICA (ANTIGA DESTILARIA ANDRADE);Bagasse TPP;-21.051442;-48.264082;0.0532224;0.0684288;0.0608256;NA;NA;NA;NA;NA;NA;0.0608256;0.8895744;0.4752;4.37184E-05;0.000057024;5.03712E-05;68.23872;88.95744;78.59808
MANDU;Bagasse TPP;-20.324892;-48.283319;0.145152;0.186624;0.165888;NA;NA;NA;NA;NA;NA;0.165888;2.426112;1.296;0.000119232;0.00015552;0.000137376;186.1056;242.6112;214.3584
GUARANI - CRUZ ALTA;Bagasse TPP;-20.744737;-48.909426;0.10450944;0.13436928;0.11943936;NA;NA;NA;NA;NA;NA;0.11943936;1.74680064;0.93312;8.5847E-05;0.000111974;9.89107E-05;133.996032;174.680064;154.338048
SÃO JOSÉ DA ESTIVA;Bagasse TPP;-21.486870;-49.185911;0.068544;0.088128;0.078336;NA;NA;NA;NA;NA;NA;0.078336;1.145664;0.612;0.000056304;0.00007344;0.000064872;87.8832;114.5664;101.2248
PANTANAL;Bagasse TPP;-15.934350;-54.962518;0.008064;0.010368;0.009216;NA;NA;NA;NA;NA;NA;0.009216;0.134784;0.072;0.000006624;0.00000864;0.000007632;10.3392;13.4784;11.9088
JACIARA;Bagasse TPP;-15.976043;-54.950845;0.00451584;0.00580608;0.00516096;NA;NA;NA;NA;NA;NA;0.00516096;0.07547904;0.04032;3.70944E-06;4.8384E-06;4.27392E-06;5.789952;7.547904;6.668928
BAZAN;Bagasse TPP;-21.007754;-48.035624;0.01645056;0.02115072;0.01880064;NA;NA;NA;NA;NA;NA;0.01880064;0.27495936;0.14688;1.3513E-05;1.76256E-05;1.55693E-05;21.091968;27.495936;24.293952
SÃO DOMINGOS;Bagasse TPP;-21.102280;-48.926866;0.0193536;0.0248832;0.0221184;NA;NA;NA;NA;NA;NA;0.0221184;0.3234816;0.1728;1.58976E-05;0.000020736;1.83168E-05;24.81408;32.34816;28.58112
MOEMA;Bagasse TPP;-20.254304;-49.292440;0.0387072;0.0497664;0.0442368;NA;NA;NA;NA;NA;NA;0.0442368;0.6469632;0.3456;3.17952E-05;0.000041472;3.66336E-05;49.62816;64.69632;57.16224
DIANA;Bagasse TPP;-21.474105;-49.934966;0.004633574;0.005957453;0.005295514;NA;NA;NA;NA;NA;NA;0.005295514;0.077446886;0.0413712;3.80615E-06;4.96454E-06;4.38535E-06;5.94090432;7.74468864;6.84279648
ÁGUA BONITA;Bagasse TPP;-22.736898;-50.580984;0.0274176;0.0352512;0.0313344;NA;NA;NA;NA;NA;NA;0.0313344;0.4582656;0.2448;2.25216E-05;0.000029376;2.59488E-05;35.15328;45.82656;40.48992
DESTILARIA GUARICANGA;Bagasse TPP;-22.106087;-49.435508;0.00258048;0.00331776;0.00294912;NA;NA;NA;NA;NA;NA;0.00294912;0.04313088;0.02304;2.11968E-06;2.7648E-06;2.44224E-06;3.308544;4.313088;3.810816
DESTILARIA MALOSSO;Bagasse TPP;-21.565808;-48.814681;0.0064512;0.0082944;0.0073728;NA;NA;NA;NA;NA;NA;0.0073728;0.1078272;0.0576;5.2992E-06;0.000006912;6.1056E-06;8.27136;10.78272;9.52704
CORACI;Bagasse TPP;-22.739705;-49.732398;0.002232115;0.002869862;0.002550989;NA;NA;NA;NA;NA;NA;0.002550989;0.037308211;0.0199296;1.83352E-06;2.39155E-06;2.11254E-06;2.86189056;3.73082112;3.29635584
TROMBINI;Bagasse TPP;-27.038020;-50.909358;0.007854336;0.010098432;0.008976384;NA;NA;NA;NA;NA;NA;0.008976384;0.131279616;0.070128;6.45178E-06;8.41536E-06;7.43357E-06;10.0703808;13.1279616;11.5991712
BENÁLCOOL;Bagasse TPP;-21.276938;-50.819852;0.00677376;0.00870912;0.00774144;NA;NA;NA;NA;NA;NA;0.00774144;0.11321856;0.06048;5.56416E-06;7.2576E-06;6.41088E-06;8.684928;11.321856;10.003392
SANTA LÚCIA;Bagasse TPP;-22.394696;-47.389969;0.00709632;0.00912384;0.00811008;NA;NA;NA;NA;NA;NA;0.00811008;0.11860992;0.06336;5.82912E-06;7.6032E-06;6.71616E-06;9.098496;11.860992;10.479744
ALCIDIA;Bagasse TPP;-22.538851;-52.190831;0.06144768;0.07900416;0.07022592;NA;NA;NA;NA;NA;NA;0.07022592;1.02705408;0.54864;5.04749E-05;6.58368E-05;5.81558E-05;78.784704;102.705408;90.745056
BELLÃO & SCHIAVON;Bagasse TPP;-21.812253;-47.235488;0.00104832;0.00134784;0.00119808;NA;NA;NA;NA;NA;NA;0.00119808;0.01752192;0.00936;8.6112E-07;1.1232E-06;9.9216E-07;1.344096;1.752192;1.548144
PARAÍSO;Bagasse TPP;-22.265142;-48.154094;0.01241856;0.01596672;0.01419264;NA;NA;NA;NA;NA;NA;0.01419264;0.20756736;0.11088;1.0201E-05;1.33056E-05;1.17533E-05;15.922368;20.756736;18.339552
BELA VISTA;Bagasse TPP;-21.028625;-48.053734;0.01580544;0.02032128;0.01806336;NA;NA;NA;NA;NA;NA;0.01806336;0.26417664;0.14112;1.2983E-05;1.69344E-05;1.49587E-05;20.264832;26.417664;23.341248
ITAIQUARA;Bagasse TPP;-21.455312;-46.750967;0.00516096;0.00663552;0.00589824;NA;NA;NA;NA;NA;NA;0.00589824;0.08626176;0.04608;4.23936E-06;5.5296E-06;4.88448E-06;6.617088;8.626176;7.621632
ÁGUA LIMPA;Bagasse TPP;-20.780958;-49.728315;0.004451328;0.005723136;0.005087232;NA;NA;NA;NA;NA;NA;0.005087232;0.074400768;0.039744;3.65645E-06;4.76928E-06;4.21286E-06;5.7072384;7.4400768;6.5736576
SANTA ROSA;Bagasse TPP;-23.259627;-47.639170;0.004451328;0.005723136;0.005087232;NA;NA;NA;NA;NA;NA;0.005087232;0.074400768;0.039744;3.65645E-06;4.76928E-06;4.21286E-06;5.7072384;7.4400768;6.5736576
SANTA FÉ;Bagasse TPP;-21.768898;-48.557412;0.01032192;0.01327104;0.01179648;NA;NA;NA;NA;NA;NA;0.01179648;0.17252352;0.09216;8.47872E-06;1.10592E-05;9.76896E-06;13.234176;17.252352;15.243264
LWARCEL;Bagasse TPP;-22.546772;-48.814894;0.0064512;0.0082944;0.0073728;NA;NA;NA;NA;NA;NA;0.0073728;0.1078272;0.0576;5.2992E-06;0.000006912;6.1056E-06;8.27136;10.78272;9.52704
SANTO ANTÔNIO;Bagasse TPP;-22.659797;-47.643290;0.001870848;0.002405376;0.002138112;NA;NA;NA;NA;NA;NA;0.002138112;0.031269888;0.016704;1.53677E-06;2.00448E-06;1.77062E-06;2.3986944;3.1269888;2.7628416
FLORAPLAC;Bagasse TPP;-2.963406;-47.375360;0.002016;0.002592;0.002304;NA;NA;NA;NA;NA;NA;0.002304;0.033696;0.018;0.000001656;0.00000216;0.000001908;2.5848;3.3696;2.9772
DELOS;Bagasse TPP;-21.161521;-47.988729;0.00112896;0.00145152;0.00129024;NA;NA;NA;NA;NA;NA;0.00129024;0.01886976;0.01008;9.2736E-07;1.2096E-06;1.06848E-06;1.447488;1.886976;1.667232
DELLA COLETTA;Bagasse TPP;-22.081042;-48.719312;0.0064512;0.0082944;0.0073728;NA;NA;NA;NA;NA;NA;0.0073728;0.1078272;0.0576;5.2992E-06;0.000006912;6.1056E-06;8.27136;10.78272;9.52704
BARRA;Bagasse TPP;-22.478612;-48.545333;0.02548224;0.03276288;0.02912256;NA;NA;NA;NA;NA;NA;0.02912256;0.42591744;0.22752;2.09318E-05;2.73024E-05;2.41171E-05;32.671872;42.591744;37.631808
BRANCO PERES;Bagasse TPP;-21.688810;-51.046027;0.006418944;0.008252928;0.007335936;NA;NA;NA;NA;NA;NA;0.007335936;0.107288064;0.057312;5.2727E-06;6.87744E-06;6.07507E-06;8.2300032;10.7288064;9.4794048
PEDERNEIRAS;Bagasse TPP;-23.122203;-47.718601;0.00387072;0.00497664;0.00442368;NA;NA;NA;NA;NA;NA;0.00442368;0.06469632;0.03456;3.17952E-06;4.1472E-06;3.66336E-06;4.962816;6.469632;5.716224
GASA;Bagasse TPP;-20.931918;-51.379115;0.1322496;0.1700352;0.1511424;NA;NA;NA;NA;NA;NA;0.1511424;2.2104576;1.1808;0.000108634;0.000141696;0.000125165;169.56288;221.04576;195.30432
URBANO JARAGUÁ;Bagasse TPP;-26.508364;-49.109841;0.0048384;0.0062208;0.0055296;NA;NA;NA;NA;NA;NA;0.0055296;0.0808704;0.0432;3.9744E-06;0.000005184;4.5792E-06;6.20352;8.08704;7.14528
COCAL;Bagasse TPP;-22.393625;-50.591643;0.04548096;0.05847552;0.05197824;NA;NA;NA;NA;NA;NA;0.05197824;0.76018176;0.40608;3.73594E-05;4.87296E-05;4.30445E-05;58.313088;76.018176;67.165632
DULCINI;Bagasse TPP;-22.602154;-46.935960;0.002985615;0.003838648;0.003412132;NA;NA;NA;NA;NA;NA;0.003412132;0.049902428;0.02665728;2.45247E-06;3.19887E-06;2.82567E-06;3.827985408;4.990242816;4.409114112
DACAL;Bagasse TPP;-21.787154;-50.810506;0.00709632;0.00912384;0.00811008;NA;NA;NA;NA;NA;NA;0.00811008;0.11860992;0.06336;5.82912E-06;7.6032E-06;6.71616E-06;9.098496;11.860992;10.479744
GUARANI;Bagasse TPP;-20.821616;-48.821199;0.01516032;0.01949184;0.01732608;NA;NA;NA;NA;NA;NA;0.01732608;0.25339392;0.13536;1.24531E-05;1.62432E-05;1.43482E-05;19.437696;25.339392;22.388544
URUBA;Bagasse TPP;-9.500704;-36.001414;0.016128;0.020736;0.018432;NA;NA;NA;NA;NA;NA;0.018432;0.269568;0.144;0.000013248;0.00001728;0.000015264;20.6784;26.9568;23.8176
COOCAROL;Bagasse TPP;-23.404581;-52.752034;0.0064512;0.0082944;0.0073728;NA;NA;NA;NA;NA;NA;0.0073728;0.1078272;0.0576;5.2992E-06;0.000006912;6.1056E-06;8.27136;10.78272;9.52704
CATANDUVA (ANTIGA CERRADINHO);Bagasse TPP;-21.135240;-48.976821;0.12096;0.15552;0.13824;NA;NA;NA;NA;NA;NA;0.13824;2.02176;1.08;0.00009936;0.0001296;0.00011448;155.088;202.176;178.632
BOM RETIRO;Bagasse TPP;-22.978864;-47.506309;0.00580608;0.00746496;0.00663552;NA;NA;NA;NA;NA;NA;0.00663552;0.09704448;0.05184;4.76928E-06;6.2208E-06;5.49504E-06;7.444224;9.704448;8.574336
DESTIL;Bagasse TPP;-21.256114;-49.139955;0.00548352;0.00705024;0.00626688;NA;NA;NA;NA;NA;NA;0.00626688;0.09165312;0.04896;4.50432E-06;5.8752E-06;5.18976E-06;7.030656;9.165312;8.097984
FANY;Bagasse TPP;-22.198420;-51.291532;0.00193536;0.00248832;0.00221184;NA;NA;NA;NA;NA;NA;0.00221184;0.03234816;0.01728;1.58976E-06;2.0736E-06;1.83168E-06;2.481408;3.234816;2.858112
PIONEIROS;Bagasse TPP;-20.684541;-50.917174;0.0677376;0.0870912;0.0774144;NA;NA;NA;NA;NA;NA;0.0774144;1.1321856;0.6048;5.56416E-05;0.000072576;6.41088E-05;86.84928;113.21856;100.03392
SOBAR;Bagasse TPP;-22.686864;-49.419153;0.006231859;0.00801239;0.007122125;NA;NA;NA;NA;NA;NA;0.007122125;0.104161075;0.0556416;5.11903E-06;6.67699E-06;5.89801E-06;7.99013376;10.41610752;9.20312064
ALCOMIRA;Bagasse TPP;-21.121005;-51.090413;0.00387072;0.00497664;0.00442368;NA;NA;NA;NA;NA;NA;0.00442368;0.06469632;0.03456;3.17952E-06;4.1472E-06;3.66336E-06;4.962816;6.469632;5.716224
LONDRA;Bagasse TPP;-23.410036;-49.105375;0.006257664;0.008045568;0.007151616;NA;NA;NA;NA;NA;NA;0.007151616;0.104592384;0.055872;5.14022E-06;6.70464E-06;5.92243E-06;8.0232192;10.4592384;9.2412288
DECASA;Bagasse TPP;-22.816385;-50.061069;0.0532224;0.0684288;0.0608256;NA;NA;NA;NA;NA;NA;0.0608256;0.8895744;0.4752;4.37184E-05;0.000057024;5.03712E-05;68.23872;88.95744;78.59808
GUAXUMA;Bagasse TPP;-10.119481;-36.165209;0.023082394;0.029677363;0.026379878;NA;NA;NA;NA;NA;NA;0.026379878;0.385805722;0.2060928;1.89605E-05;2.47311E-05;2.18458E-05;29.59492608;38.58057216;34.08774912
FERRARI;Bagasse TPP;-21.983808;-47.430962;0.1120896;0.1441152;0.1281024;NA;NA;NA;NA;NA;NA;0.1281024;1.8734976;1.0008;9.20736E-05;0.000120096;0.000106085;143.71488;187.34976;165.53232
GENERALCO;Bagasse TPP;-20.640629;-50.363694;0.00612864;0.00787968;0.00700416;NA;NA;NA;NA;NA;NA;0.00700416;0.10243584;0.05472;5.03424E-06;6.5664E-06;5.80032E-06;7.857792;10.243584;9.050688
USINA SÃO LUIZ;Bagasse TPP;-22.971046;-49.909639;0.0258048;0.0331776;0.0294912;NA;NA;NA;NA;NA;NA;0.0294912;0.4313088;0.2304;2.11968E-05;0.000027648;2.44224E-05;33.08544;43.13088;38.10816
PANORÂMICA;Bagasse TPP;-23.420472;-49.097307;0.00596736;0.00767232;0.00681984;NA;NA;NA;NA;NA;NA;0.00681984;0.09974016;0.05328;4.90176E-06;6.3936E-06;5.64768E-06;7.651008;9.974016;8.812512
CASA DE FORÇA;Bagasse TPP;-20.272784;-50.268888;0.006322176;0.008128512;0.007225344;NA;NA;NA;NA;NA;NA;0.007225344;0.105670656;0.056448;5.19322E-06;6.77376E-06;5.98349E-06;8.1059328;10.5670656;9.3364992
NOVA TAMOIO;Bagasse TPP;-21.749967;-48.180615;0.00580608;0.00746496;0.00663552;NA;NA;NA;NA;NA;NA;0.00663552;0.09704448;0.05184;4.76928E-06;6.2208E-06;5.49504E-06;7.444224;9.704448;8.574336
DOIS CÓRREGOS;Bagasse TPP;-22.359716;-48.392853;0.00580608;0.00746496;0.00663552;NA;NA;NA;NA;NA;NA;0.00663552;0.09704448;0.05184;4.76928E-06;6.2208E-06;5.49504E-06;7.444224;9.704448;8.574336
DESTILARIA MELHORAMENTOS;Bagasse TPP;-23.633356;-52.462851;0.01032192;0.01327104;0.01179648;NA;NA;NA;NA;NA;NA;0.01179648;0.17252352;0.09216;8.47872E-06;1.10592E-05;9.76896E-06;13.234176;17.252352;15.243264
DESTILARIA PARAGUAÇU;Bagasse TPP;-22.431435;-50.584455;0.00580608;0.00746496;0.00663552;NA;NA;NA;NA;NA;NA;0.00663552;0.09704448;0.05184;4.76928E-06;6.2208E-06;5.49504E-06;7.444224;9.704448;8.574336
CATANDUVA;Bagasse TPP;-21.193217;-48.784180;0.0145152;0.0186624;0.0165888;NA;NA;NA;NA;NA;NA;0.0165888;0.2426112;0.1296;1.19232E-05;0.000015552;1.37376E-05;18.61056;24.26112;21.43584
COLORADO;Bagasse TPP;-20.311752;-48.298516;0.085091328;0.109403136;0.097247232;NA;NA;NA;NA;NA;NA;0.097247232;1.422240768;0.759744;6.98964E-05;9.11693E-05;8.05329E-05;109.0992384;142.2240768;125.6616576
NOVA AMÉRICA;Bagasse TPP;-22.745071;-50.600983;0.0387072;0.0497664;0.0442368;NA;NA;NA;NA;NA;NA;0.0442368;0.6469632;0.3456;3.17952E-05;0.000041472;3.66336E-05;49.62816;64.69632;57.16224
EQUIPAV;Bagasse TPP;-21.559317;-49.868596;0.09418752;0.12109824;0.10764288;NA;NA;NA;NA;NA;NA;0.10764288;1.57427712;0.84096;7.73683E-05;0.000100915;8.91418E-05;120.761856;157.427712;139.094784
IBIRÁ;Bagasse TPP;-21.492994;-47.390793;0.012825792;0.016490304;0.014658048;NA;NA;NA;NA;NA;NA;0.014658048;0.214373952;0.114516;1.05355E-05;1.37419E-05;1.21387E-05;16.4444976;21.4373952;18.9409464
SIDROLÂNDIA (ANTIGA SANTA OLINDA);Bagasse TPP;-20.909544;-54.953320;0.008644608;0.011114496;0.009879552;NA;NA;NA;NA;NA;NA;0.009879552;0.144488448;0.077184;7.10093E-06;9.26208E-06;8.1815E-06;11.0836224;14.4488448;12.7662336
COOPERNAVI;Bagasse TPP;-23.038283;-54.184956;0.0193536;0.0248832;0.0221184;NA;NA;NA;NA;NA;NA;0.0221184;0.3234816;0.1728;1.58976E-05;0.000020736;1.83168E-05;24.81408;32.34816;28.58112
MARACAJÚ;Bagasse TPP;-21.612245;-55.181926;0.01193472;0.01534464;0.01363968;NA;NA;NA;NA;NA;NA;0.01363968;0.19948032;0.10656;9.80352E-06;1.27872E-05;1.12954E-05;15.302016;19.948032;17.625024
PASSA TEMPO;Bagasse TPP;-21.782953;-54.530882;0.11902464;0.15303168;0.13602816;NA;NA;NA;NA;NA;NA;0.13602816;1.98941184;1.06272;9.77702E-05;0.000127526;0.000112648;152.606592;198.941184;175.773888
JALLES MACHADO;Bagasse TPP;-15.337953;-49.106689;0.08064;0.10368;0.09216;NA;NA;NA;NA;NA;NA;0.09216;1.34784;0.72;0.00006624;0.0000864;0.00007632;103.392;134.784;119.088
GOIANÉSIA;Bagasse TPP;-15.302771;-49.128490;0.01177344;0.01513728;0.01345536;NA;NA;NA;NA;NA;NA;0.01345536;0.19678464;0.10512;9.67104E-06;1.26144E-05;1.11427E-05;15.095232;19.678464;17.386848
SANTA HELENA AÇÚCAR E ÁLCOOL;Bagasse TPP;-17.824745;-50.582152;0.00709632;0.00912384;0.00811008;NA;NA;NA;NA;NA;NA;0.00811008;0.11860992;0.06336;5.82912E-06;7.6032E-06;6.71616E-06;9.098496;11.860992;10.479744
VALE DO VERDÃO;Bagasse TPP;-17.797797;-50.331985;0.03773952;0.04852224;0.04313088;NA;NA;NA;NA;NA;NA;0.04313088;0.63078912;0.33696;3.10003E-05;4.04352E-05;3.57178E-05;48.387456;63.078912;55.733184
GOIASA;Bagasse TPP;-18.024206;-49.364596;0.075027456;0.096463872;0.085745664;NA;NA;NA;NA;NA;NA;0.085745664;1.254030336;0.669888;6.16297E-05;8.03866E-05;7.10081E-05;96.1959168;125.4030336;110.7994752
COPRODIA;Bagasse TPP;-13.678132;-57.890803;0.0096768;0.0124416;0.0110592;NA;NA;NA;NA;NA;NA;0.0110592;0.1617408;0.0864;7.9488E-06;0.000010368;9.1584E-06;12.40704;16.17408;14.29056
ITAMARATI;Bagasse TPP;-14.769670;-57.282329;0.06048;0.07776;0.06912;NA;NA;NA;NA;NA;NA;0.06912;1.01088;0.54;0.00004968;0.0000648;0.00005724;77.544;101.088;89.316
SANTA TEREZINHA PARANACITY;Bagasse TPP;-22.937190;-52.152406;0.0741888;0.0953856;0.0847872;NA;NA;NA;NA;NA;NA;0.0847872;1.2400128;0.6624;6.09408E-05;0.000079488;7.02144E-05;95.12064;124.00128;109.56096
SANTA TEREZINHA (IVATÉ);Bagasse TPP;-23.404349;-53.378860;0.0145152;0.0186624;0.0165888;NA;NA;NA;NA;NA;NA;0.0165888;0.2426112;0.1296;1.19232E-05;0.000015552;1.37376E-05;18.61056;24.26112;21.43584
PEROBÁLCOOL;Bagasse TPP;-23.888840;-53.405361;0.00387072;0.00497664;0.00442368;NA;NA;NA;NA;NA;NA;0.00442368;0.06469632;0.03456;3.17952E-06;4.1472E-06;3.66336E-06;4.962816;6.469632;5.716224
VALE DO IVAÍ;Bagasse TPP;-23.861497;-51.853163;0.02967552;0.03815424;0.03391488;NA;NA;NA;NA;NA;NA;0.03391488;0.49600512;0.26496;2.43763E-05;3.17952E-05;2.80858E-05;38.048256;49.600512;43.824384
BIO COOPCANA;Bagasse TPP;-23.306438;-52.479983;0.08064;0.10368;0.09216;NA;NA;NA;NA;NA;NA;0.09216;1.34784;0.72;0.00006624;0.0000864;0.00007632;103.392;134.784;119.088
SANTA TEREZINHA;Bagasse TPP;-23.748730;-52.880378;0.0814464;0.1047168;0.0930816;NA;NA;NA;NA;NA;NA;0.0930816;1.3613184;0.7272;6.69024E-05;0.000087264;7.70832E-05;104.42592;136.13184;120.27888
SABARÁLCOOL;Bagasse TPP;-23.807811;-52.253667;0.007039872;0.009051264;0.008045568;NA;NA;NA;NA;NA;NA;0.008045568;0.117666432;0.062856;5.78275E-06;7.54272E-06;6.66274E-06;9.0261216;11.7666432;10.3963824
IGUATEMI (ANTIGA SANTA TEREZINHA - IGUATEMI);Bagasse TPP;-23.401766;-51.903616;0.00548352;0.00705024;0.00626688;NA;NA;NA;NA;NA;NA;0.00626688;0.09165312;0.04896;4.50432E-06;5.8752E-06;5.18976E-06;7.030656;9.165312;8.097984
JACAREZINHO;Bagasse TPP;-23.134816;-49.939865;0.00741888;0.00953856;0.00847872;NA;NA;NA;NA;NA;NA;0.00847872;0.12400128;0.06624;6.09408E-06;7.9488E-06;7.02144E-06;9.512064;12.400128;10.956096
DESTILARIA DE ÁLCOOL IBAITI;Bagasse TPP;-23.817147;-50.179785;0.00580608;0.00746496;0.00663552;NA;NA;NA;NA;NA;NA;0.00663552;0.09704448;0.05184;4.76928E-06;6.2208E-06;5.49504E-06;7.444224;9.704448;8.574336
DACALDA;Bagasse TPP;-23.140795;-49.973382;0.00354816;0.00456192;0.00405504;NA;NA;NA;NA;NA;NA;0.00405504;0.05930496;0.03168;2.91456E-06;3.8016E-06;3.35808E-06;4.549248;5.930496;5.239872
COFERCATU;Bagasse TPP;-22.873829;-51.411299;0.0064512;0.0082944;0.0073728;NA;NA;NA;NA;NA;NA;0.0073728;0.1078272;0.0576;5.2992E-06;0.000006912;6.1056E-06;8.27136;10.78272;9.52704
COOPERVAL;Bagasse TPP;-23.598322;-51.657237;0.00580608;0.00746496;0.00663552;NA;NA;NA;NA;NA;NA;0.00663552;0.09704448;0.05184;4.76928E-06;6.2208E-06;5.49504E-06;7.444224;9.704448;8.574336
SÃO FRANCISCO;Bagasse TPP;-23.041734;-47.359096;0.00677376;0.00870912;0.00774144;NA;NA;NA;NA;NA;NA;0.00774144;0.11321856;0.06048;5.56416E-06;7.2576E-06;6.41088E-06;8.684928;11.321856;10.003392
SANTA RITA;Bagasse TPP;-21.693346;-47.490832;0.01080576;0.01389312;0.01234944;NA;NA;NA;NA;NA;NA;0.01234944;0.18061056;0.09648;8.87616E-06;1.15776E-05;1.02269E-05;13.854528;18.061056;15.957792
TRIÁLCOOL;Bagasse TPP;-18.730409;-49.203488;0.024192;0.031104;0.027648;NA;NA;NA;NA;NA;NA;0.027648;0.404352;0.216;0.000019872;0.00002592;0.000022896;31.0176;40.4352;35.7264
USINA DA SERRA;Bagasse TPP;-21.950352;-47.996571;0.024192;0.031104;0.027648;NA;NA;NA;NA;NA;NA;0.027648;0.404352;0.216;0.000019872;0.00002592;0.000022896;31.0176;40.4352;35.7264
SANTA HELENA;Bagasse TPP;-22.837436;-47.600093;0.00774144;0.00995328;0.00884736;NA;NA;NA;NA;NA;NA;0.00884736;0.12939264;0.06912;6.35904E-06;8.2944E-06;7.32672E-06;9.925632;12.939264;11.432448
MUMBUCA;Bagasse TPP;-22.626069;-50.201498;0.000812851;0.001045094;0.000928973;NA;NA;NA;NA;NA;NA;0.000928973;0.013586227;0.0072576;6.67699E-07;8.70912E-07;7.69306E-07;1.04219136;1.35862272;1.20040704
DELTA;Bagasse TPP;-19.973386;-47.768499;0.051408;0.066096;0.058752;NA;NA;NA;NA;NA;NA;0.058752;0.859248;0.459;0.000042228;0.00005508;0.000048654;65.9124;85.9248;75.9186
COSTA PINTO;Bagasse TPP;-22.718278;-47.599516;0.12096;0.15552;0.13824;NA;NA;NA;NA;NA;NA;0.13824;2.02176;1.08;0.00009936;0.0001296;0.00011448;155.088;202.176;178.632
SANTA ELISA - UNIDADE I;Bagasse TPP;-21.134084;-47.971177;0.0935424;0.1202688;0.1069056;NA;NA;NA;NA;NA;NA;0.1069056;1.5634944;0.8352;7.68384E-05;0.000100224;8.85312E-05;119.93472;156.34944;138.14208
MORENO;Bagasse TPP;-21.548690;-47.702446;0.008902656;0.011446272;0.010174464;NA;NA;NA;NA;NA;NA;0.010174464;0.148801536;0.079488;7.3129E-06;9.53856E-06;8.42573E-06;11.4144768;14.8801536;13.1473152
CITROSUCO;Bagasse TPP;-21.633410;-48.337381;0.0112896;0.0145152;0.0129024;NA;NA;NA;NA;NA;NA;0.0129024;0.1886976;0.1008;9.2736E-06;0.000012096;1.06848E-05;14.47488;18.86976;16.67232
CLEALCO;Bagasse TPP;-21.561272;-50.452938;0.01806336;0.02322432;0.02064384;NA;NA;NA;NA;NA;NA;0.02064384;0.30191616;0.16128;1.48378E-05;1.93536E-05;1.70957E-05;23.159808;30.191616;26.675712
ALCOAZUL;Bagasse TPP;-21.185822;-50.467029;0.01193472;0.01534464;0.01363968;NA;NA;NA;NA;NA;NA;0.01363968;0.19948032;0.10656;9.80352E-06;1.27872E-05;1.12954E-05;15.302016;19.948032;17.625024
QUATÁ;Bagasse TPP;-22.236973;-50.707809;0.104832;0.134784;0.119808;NA;NA;NA;NA;NA;NA;0.119808;1.752192;0.936;0.000086112;0.00011232;0.000099216;134.4096;175.2192;154.8144
ZANIN;Bagasse TPP;-21.836995;-48.150746;0.0258048;0.0331776;0.0294912;NA;NA;NA;NA;NA;NA;0.0294912;0.4313088;0.2304;2.11968E-05;0.000027648;2.44224E-05;33.08544;43.13088;38.10816
COINBRA - FRUTESP;Bagasse TPP;-20.933129;-48.484139;0.008064;0.010368;0.009216;NA;NA;NA;NA;NA;NA;0.009216;0.134784;0.072;0.000006624;0.00000864;0.000007632;10.3392;13.4784;11.9088
SANTA MARIA DE LENÇÓIS;Bagasse TPP;-22.570551;-48.815666;0.004902912;0.006303744;0.005603328;NA;NA;NA;NA;NA;NA;0.005603328;0.081948672;0.043776;4.02739E-06;5.25312E-06;4.64026E-06;6.2862336;8.1948672;7.2405504
SANTO ANTÔNIO;Bagasse TPP;-21.142490;-48.010702;0.0370944;0.0476928;0.0423936;NA;NA;NA;NA;NA;NA;0.0423936;0.6200064;0.3312;3.04704E-05;0.000039744;3.51072E-05;47.56032;62.00064;54.78048
UFA;Bagasse TPP;-22.160442;-51.374044;0.04064256;0.05225472;0.04644864;NA;NA;NA;NA;NA;NA;0.04644864;0.67931136;0.36288;3.3385E-05;4.35456E-05;3.84653E-05;52.109568;67.931136;60.020352
UJU;Bagasse TPP;-22.850749;-51.973415;0.048384;0.062208;0.055296;NA;NA;NA;NA;NA;NA;0.055296;0.808704;0.432;0.000039744;0.00005184;0.000045792;62.0352;80.8704;71.4528
JB;Bagasse TPP;-8.115920;-35.264315;0.05354496;0.06884352;0.06119424;NA;NA;NA;NA;NA;NA;0.06119424;0.89496576;0.47808;4.39834E-05;5.73696E-05;5.06765E-05;68.652288;89.496576;79.074432
SANTA ISABEL;Bagasse TPP;-21.480586;-49.223752;0.0741888;0.0953856;0.0847872;NA;NA;NA;NA;NA;NA;0.0847872;1.2400128;0.6624;6.09408E-05;0.000079488;7.02144E-05;95.12064;124.00128;109.56096
SANTA CLARA;Bagasse TPP;-21.255799;-48.345049;0.000487066;0.000626227;0.000556646;NA;NA;NA;NA;NA;NA;0.000556646;0.008140954;0.0043488;4.0009E-07;5.21856E-07;4.60973E-07;0.62448768;0.81409536;0.71929152
SANTA HERMÍNIA;Bagasse TPP;-22.810175;-50.069052;0.00193536;0.00248832;0.00221184;NA;NA;NA;NA;NA;NA;0.00221184;0.03234816;0.01728;1.58976E-06;2.0736E-06;1.83168E-06;2.481408;3.234816;2.858112
CEVASA;Bagasse TPP;-20.630383;-47.287820;0.0870912;0.1119744;0.0995328;NA;NA;NA;NA;NA;NA;0.0995328;1.4556672;0.7776;7.15392E-05;0.000093312;8.24256E-05;111.66336;145.56672;128.61504
COOPERFRIGO;Bagasse TPP;-21.562310;-49.851773;0.0064512;0.0082944;0.0073728;NA;NA;NA;NA;NA;NA;0.0073728;0.1078272;0.0576;5.2992E-06;0.000006912;6.1056E-06;8.27136;10.78272;9.52704
DESTIVALE;Bagasse TPP;-21.174617;-50.447803;0.008064;0.010368;0.009216;NA;NA;NA;NA;NA;NA;0.009216;0.134784;0.072;0.000006624;0.00000864;0.000007632;10.3392;13.4784;11.9088
GRIZZO;Bagasse TPP;-22.335044;-48.547298;0.00317399;0.004080845;0.003627418;NA;NA;NA;NA;NA;NA;0.003627418;0.053050982;0.0283392;2.60721E-06;3.4007E-06;3.00396E-06;4.06950912;5.30509824;4.68730368
VISTA ALEGRE;Bagasse TPP;-23.569946;-48.016382;0.056448;0.072576;0.064512;NA;NA;NA;NA;NA;NA;0.064512;0.943488;0.504;0.000046368;0.00006048;0.000053424;72.3744;94.3488;83.3616
CAMPO FLORIDO;Bagasse TPP;-19.760626;-48.574949;0.048384;0.062208;0.055296;NA;NA;NA;NA;NA;NA;0.055296;0.808704;0.432;0.000039744;0.00005184;0.000045792;62.0352;80.8704;71.4528
CORURIPE ITURAMA;Bagasse TPP;-19.717810;-50.192989;0.0387072;0.0497664;0.0442368;NA;NA;NA;NA;NA;NA;0.0442368;0.6469632;0.3456;3.17952E-05;0.000041472;3.66336E-05;49.62816;64.69632;57.16224
CACHOEIRA;Bagasse TPP;-9.612216;-35.715091;0.01193472;0.01534464;0.01363968;NA;NA;NA;NA;NA;NA;0.01363968;0.19948032;0.10656;9.80352E-06;1.27872E-05;1.12954E-05;15.302016;19.948032;17.625024
ARALCO;Bagasse TPP;-20.938333;-50.496689;0.00774144;0.00995328;0.00884736;NA;NA;NA;NA;NA;NA;0.00884736;0.12939264;0.06912;6.35904E-06;8.2944E-06;7.32672E-06;9.925632;12.939264;11.432448
JAPUNGU;Bagasse TPP;-7.205941;-34.849883;0.02709504;0.03483648;0.03096576;NA;NA;NA;NA;NA;NA;0.03096576;0.45287424;0.24192;2.22566E-05;2.90304E-05;2.56435E-05;34.739712;45.287424;40.013568
ITAENGA;Bagasse TPP;-7.933856;-35.287967;0.0758016;0.0974592;0.0866304;NA;NA;NA;NA;NA;NA;0.0866304;1.2669696;0.6768;6.22656E-05;0.000081216;7.17408E-05;97.18848;126.69696;111.94272
VOLTA GRANDE;Bagasse TPP;-19.917887;-48.367224;0.088604006;0.113919437;0.101261722;NA;NA;NA;NA;NA;NA;0.101261722;1.480952678;0.7911072;7.27819E-05;9.49329E-05;8.38574E-05;113.6029939;148.0952678;130.8491309
MARITUBA;Bagasse TPP;-10.132662;-36.650397;0.0330624;0.0425088;0.0377856;NA;NA;NA;NA;NA;NA;0.0377856;0.5526144;0.2952;2.71584E-05;0.000035424;3.12912E-05;42.39072;55.26144;48.82608
SERRA GRANDE;Bagasse TPP;-9.011972;-36.057302;0.02774016;0.03566592;0.03170304;NA;NA;NA;NA;NA;NA;0.03170304;0.46365696;0.24768;2.27866E-05;2.97216E-05;2.62541E-05;35.566848;46.365696;40.966272
CUCAÚ;Bagasse TPP;-8.677323;-35.159524;0.02032128;0.02612736;0.02322432;NA;NA;NA;NA;NA;NA;0.02322432;0.33965568;0.18144;1.66925E-05;2.17728E-05;1.92326E-05;26.054784;33.965568;30.010176
SUMAÚMA;Bagasse TPP;-9.755077;-35.840890;0.0064512;0.0082944;0.0073728;NA;NA;NA;NA;NA;NA;0.0073728;0.1078272;0.0576;5.2992E-06;0.000006912;6.1056E-06;8.27136;10.78272;9.52704
PAÍSA;Bagasse TPP;-10.274169;-36.543303;0.00774144;0.00995328;0.00884736;NA;NA;NA;NA;NA;NA;0.00884736;0.12939264;0.06912;6.35904E-06;8.2944E-06;7.32672E-06;9.925632;12.939264;11.432448
CAPRICHO;Bagasse TPP;-9.397901;-36.145578;0.00387072;0.00497664;0.00442368;NA;NA;NA;NA;NA;NA;0.00442368;0.06469632;0.03456;3.17952E-06;4.1472E-06;3.66336E-06;4.962816;6.469632;5.716224
LAGINHA-MATRIX;Bagasse TPP;-9.177042;-36.014828;0.00798336;0.01026432;0.00912384;NA;NA;NA;NA;NA;NA;0.00912384;0.13343616;0.07128;6.55776E-06;8.5536E-06;7.55568E-06;10.235808;13.343616;11.789712
GAMELEIRA;Bagasse TPP;-10.639871;-51.564187;0.00327721;0.004213555;0.003745382;NA;NA;NA;NA;NA;NA;0.003745382;0.054776218;0.0292608;2.69199E-06;3.5113E-06;3.10164E-06;4.20185088;5.47762176;4.83973632
BAÍA FORMOSA;Bagasse TPP;-6.373506;-35.008718;0.064512;0.082944;0.073728;NA;NA;NA;NA;NA;NA;0.073728;1.078272;0.576;0.000052992;0.00006912;0.000061056;82.7136;107.8272;95.2704
TRAPICHE;Bagasse TPP;-8.594271;-35.109934;0.0419328;0.0539136;0.0479232;NA;NA;NA;NA;NA;NA;0.0479232;0.7008768;0.3744;3.44448E-05;0.000044928;3.96864E-05;53.76384;70.08768;61.92576
ESTIVAS;Bagasse TPP;-6.193552;-35.162355;0.0274176;0.0352512;0.0313344;NA;NA;NA;NA;NA;NA;0.0313344;0.4582656;0.2448;2.25216E-05;0.000029376;2.59488E-05;35.15328;45.82656;40.48992
CENTRAL OLHO D ÁGUA;Bagasse TPP;-7.406727;-35.275149;0.00677376;0.00870912;0.00774144;NA;NA;NA;NA;NA;NA;0.00774144;0.11321856;0.06048;5.56416E-06;7.2576E-06;6.41088E-06;8.684928;11.321856;10.003392
UNIÃO E INDÚSTRIA;Bagasse TPP;-8.329041;-35.352427;0.00741888;0.00953856;0.00847872;NA;NA;NA;NA;NA;NA;0.00847872;0.12400128;0.06624;6.09408E-06;7.9488E-06;7.02144E-06;9.512064;12.400128;10.956096
AGROVALE;Bagasse TPP;-9.463096;-40.483824;0.0225792;0.0290304;0.0258048;NA;NA;NA;NA;NA;NA;0.0258048;0.3773952;0.2016;1.85472E-05;0.000024192;2.13696E-05;28.94976;37.73952;33.34464
IPOJUCA;Bagasse TPP;-8.395756;-35.059020;0.01483776;0.01907712;0.01695744;NA;NA;NA;NA;NA;NA;0.01695744;0.24800256;0.13248;1.21882E-05;1.58976E-05;1.40429E-05;19.024128;24.800256;21.912192
JITITUBA SANTO ANTÔNIO;Bagasse TPP;-9.308071;-35.559876;0.04419072;0.05681664;0.05050368;NA;NA;NA;NA;NA;NA;0.05050368;0.73861632;0.39456;3.62995E-05;4.73472E-05;4.18234E-05;56.658816;73.861632;65.260224
UNA AÇÚCAR E ENERGIA;Bagasse TPP;-8.757629;-35.113000;0.0048384;0.0062208;0.0055296;NA;NA;NA;NA;NA;NA;0.0055296;0.0808704;0.0432;3.9744E-06;0.000005184;4.5792E-06;6.20352;8.08704;7.14528
SINIMBU;Bagasse TPP;-9.777575;-36.104438;0.0290304;0.0373248;0.0331776;NA;NA;NA;NA;NA;NA;0.0331776;0.4852224;0.2592;2.38464E-05;0.000031104;2.74752E-05;37.22112;48.52224;42.87168
ARTIVINCO (ANTIGA RIO PARDO);Bagasse TPP;-21.493892;-47.390321;0.0072576;0.0093312;0.0082944;NA;NA;NA;NA;NA;NA;0.0082944;0.1213056;0.0648;5.9616E-06;0.000007776;6.8688E-06;9.30528;12.13056;10.71792
PITANGUEIRAS;Bagasse TPP;-21.000597;-48.207559;0.04032;0.05184;0.04608;NA;NA;NA;NA;NA;NA;0.04608;0.67392;0.36;0.00003312;0.0000432;0.00003816;51.696;67.392;59.544
TERMOCANA;Bagasse TPP;-23.313969;-52.475982;0.01322496;0.01700352;0.01511424;NA;NA;NA;NA;NA;NA;0.01511424;0.22104576;0.11808;1.08634E-05;1.41696E-05;1.25165E-05;16.956288;22.104576;19.530432
DIAMANTE;Bagasse TPP;-22.254359;-48.554851;0.0112896;0.0145152;0.0129024;NA;NA;NA;NA;NA;NA;0.0129024;0.1886976;0.1008;9.2736E-06;0.000012096;1.06848E-05;14.47488;18.86976;16.67232
SANTA TERESA;Bagasse TPP;-7.559237;-35.021114;0.03257856;0.04188672;0.03723264;NA;NA;NA;NA;NA;NA;0.03723264;0.54452736;0.29088;2.6761E-05;3.49056E-05;3.08333E-05;41.770368;54.452736;48.111552
VALE DO PARANAÍBA;Bagasse TPP;-18.689223;-49.561962;0.008064;0.010368;0.009216;NA;NA;NA;NA;NA;NA;0.009216;0.134784;0.072;0.000006624;0.00000864;0.000007632;10.3392;13.4784;11.9088
GIASA II;Bagasse TPP;-7.400483;-35.095411;0.048384;0.062208;0.055296;NA;NA;NA;NA;NA;NA;0.055296;0.808704;0.432;0.000039744;0.00005184;0.000045792;62.0352;80.8704;71.4528
SÃO JOSÉ COLINA;Bagasse TPP;-20.706936;-48.527504;0.1338624;0.1721088;0.1529856;NA;NA;NA;NA;NA;NA;0.1529856;2.2374144;1.1952;0.000109958;0.000143424;0.000126691;171.63072;223.74144;197.68608
LASA;Bagasse TPP;-19.374081;-40.062541;0.00516096;0.00663552;0.00589824;NA;NA;NA;NA;NA;NA;0.00589824;0.08626176;0.04608;4.23936E-06;5.5296E-06;4.88448E-06;6.617088;8.626176;7.621632
SÃO JOSÉ;Bagasse TPP;-7.839948;-34.900929;0.041158656;0.052918272;0.047038464;NA;NA;NA;NA;NA;NA;0.047038464;0.687937536;0.367488;3.38089E-05;4.40986E-05;3.89537E-05;52.7712768;68.7937536;60.7825152
SANTO ÂNGELO;Bagasse TPP;-19.912785;-48.690355;0.064512;0.082944;0.073728;NA;NA;NA;NA;NA;NA;0.073728;1.078272;0.576;0.000052992;0.00006912;0.000061056;82.7136;107.8272;95.2704
WD;Bagasse TPP;-17.731139;-46.171271;0.010579968;0.013602816;0.012091392;NA;NA;NA;NA;NA;NA;0.012091392;0.176836608;0.094464;8.69069E-06;1.13357E-05;1.00132E-05;13.5650304;17.6836608;15.6243456
IPAUSSU;Bagasse TPP;-23.034435;-49.633445;0.0096768;0.0124416;0.0110592;NA;NA;NA;NA;NA;NA;0.0110592;0.1617408;0.0864;7.9488E-06;0.000010368;9.1584E-06;12.40704;16.17408;14.29056
J L G;Bagasse TPP;-21.516709;-48.392901;0.00258048;0.00331776;0.00294912;NA;NA;NA;NA;NA;NA;0.00294912;0.04313088;0.02304;2.11968E-06;2.7648E-06;2.44224E-06;3.308544;4.313088;3.810816
CANAÃ;Bagasse TPP;-22.407712;-50.579133;0.048384;0.062208;0.055296;NA;NA;NA;NA;NA;NA;0.055296;0.808704;0.432;0.000039744;0.00005184;0.000045792;62.0352;80.8704;71.4528
SERESTA;Bagasse TPP;-9.902535;-36.357484;0.0153216;0.0196992;0.0175104;NA;NA;NA;NA;NA;NA;0.0175104;0.2560896;0.1368;1.25856E-05;0.000016416;1.45008E-05;19.64448;25.60896;22.62672
USACIGA;Bagasse TPP;-23.369214;-52.931285;0.07838208;0.10077696;0.08957952;NA;NA;NA;NA;NA;NA;0.08957952;1.31010048;0.69984;6.43853E-05;8.39808E-05;7.4183E-05;100.497024;131.010048;115.753536
DASA;Bagasse TPP;-17.799245;-40.251003;0.00677376;0.00870912;0.00774144;NA;NA;NA;NA;NA;NA;0.00774144;0.11321856;0.06048;5.56416E-06;7.2576E-06;6.41088E-06;8.684928;11.321856;10.003392
ALCON;Bagasse TPP;-18.572788;-39.735087;0.01806336;0.02322432;0.02064384;NA;NA;NA;NA;NA;NA;0.02064384;0.30191616;0.16128;1.48378E-05;1.93536E-05;1.70957E-05;23.159808;30.191616;26.675712
IOLANDO LEITE;Bagasse TPP;-10.505835;-37.053074;0.0129024;0.0165888;0.0147456;NA;NA;NA;NA;NA;NA;0.0147456;0.2156544;0.1152;1.05984E-05;0.000013824;1.22112E-05;16.54272;21.56544;19.05408
COOPER-RUBI;Bagasse TPP;-15.167025;-49.797647;0.00387072;0.00497664;0.00442368;NA;NA;NA;NA;NA;NA;0.00442368;0.06469632;0.03456;3.17952E-06;4.1472E-06;3.66336E-06;4.962816;6.469632;5.716224
NOVA GERAÇÃO;Bagasse TPP;-17.039590;-50.149597;0.00999936;0.01285632;0.01142784;NA;NA;NA;NA;NA;NA;0.01142784;0.16713216;0.08928;8.21376E-06;1.07136E-05;9.46368E-06;12.820608;16.713216;14.766912
CORURIPE;Bagasse TPP;-10.130596;-36.174135;0.0258048;0.0331776;0.0294912;NA;NA;NA;NA;NA;NA;0.0294912;0.4313088;0.2304;2.11968E-05;0.000027648;2.44224E-05;33.08544;43.13088;38.10816
CRV;Bagasse TPP;-15.356253;-49.695175;0.0064512;0.0082944;0.0073728;NA;NA;NA;NA;NA;NA;0.0073728;0.1078272;0.0576;5.2992E-06;0.000006912;6.1056E-06;8.27136;10.78272;9.52704
COINBRA - FRUTESP;Bagasse TPP;-21.606759;-48.361414;0.0129024;0.0165888;0.0147456;NA;NA;NA;NA;NA;NA;0.0147456;0.2156544;0.1152;1.05984E-05;0.000013824;1.22112E-05;16.54272;21.56544;19.05408
LAGO AZUL;Bagasse TPP;-17.730060;-48.187500;0.0032256;0.0041472;0.0036864;NA;NA;NA;NA;NA;NA;0.0036864;0.0539136;0.0288;2.6496E-06;0.000003456;3.0528E-06;4.13568;5.39136;4.76352
ELDORADO;Bagasse TPP;-21.788293;-54.533714;0.040350643;0.051879398;0.046115021;NA;NA;NA;NA;NA;NA;0.046115021;0.674432179;0.3602736;3.31452E-05;4.32328E-05;3.8189E-05;51.73528896;67.44321792;59.58925344
MÜLLER DESTILARIA;Bagasse TPP;-21.844942;-47.457573;0.003515904;0.004520448;0.004018176;NA;NA;NA;NA;NA;NA;0.004018176;0.058765824;0.031392;2.88806E-06;3.76704E-06;3.32755E-06;4.5078912;5.8765824;5.1922368
FRONTEIRA;Bagasse TPP;-20.292105;-49.202398;0.00419328;0.00539136;0.00479232;NA;NA;NA;NA;NA;NA;0.00479232;0.07008768;0.03744;3.44448E-06;4.4928E-06;3.96864E-06;5.376384;7.008768;6.192576
COCAMAR MARINGÁ;Bagasse TPP;-23.376793;-51.909967;0.0209664;0.0269568;0.0239616;NA;NA;NA;NA;NA;NA;0.0239616;0.3504384;0.1872;1.72224E-05;0.000022464;1.98432E-05;26.88192;35.04384;30.96288
SÃO TOMÉ;Bagasse TPP;-23.538115;-52.591992;0.0064512;0.0082944;0.0073728;NA;NA;NA;NA;NA;NA;0.0073728;0.1078272;0.0576;5.2992E-06;0.000006912;6.1056E-06;8.27136;10.78272;9.52704
FARTURA;Bagasse TPP;-21.192154;-49.582546;0.06354432;0.08169984;0.07262208;NA;NA;NA;NA;NA;NA;0.07262208;1.06209792;0.56736;5.21971E-05;6.80832E-05;6.01402E-05;81.472896;106.209792;93.841344
PETRIBU;Bagasse TPP;-7.926291;-35.295526;0.0588672;0.0756864;0.0672768;NA;NA;NA;NA;NA;NA;0.0672768;0.9839232;0.5256;4.83552E-05;0.000063072;5.57136E-05;75.47616;98.39232;86.93424
RIBEIRÃO;Bagasse TPP;-8.512385;-35.370441;0.01032192;0.01327104;0.01179648;NA;NA;NA;NA;NA;NA;0.01179648;0.17252352;0.09216;8.47872E-06;1.10592E-05;9.76896E-06;13.234176;17.252352;15.243264
LIMEIRA DO OESTE;Bagasse TPP;-19.547649;-50.583249;0.008064;0.010368;0.009216;NA;NA;NA;NA;NA;NA;0.009216;0.134784;0.072;0.000006624;0.00000864;0.000007632;10.3392;13.4784;11.9088
QUIRINÓPOLIS;Bagasse TPP;-18.464344;-50.459554;0.129024;0.165888;0.147456;NA;NA;NA;NA;NA;NA;0.147456;2.156544;1.152;0.000105984;0.00013824;0.000122112;165.4272;215.6544;190.5408
VERTENTE;Bagasse TPP;-20.490354;-48.936114;0.0854784;0.1099008;0.0976896;NA;NA;NA;NA;NA;NA;0.0976896;1.4287104;0.7632;7.02144E-05;0.000091584;8.08992E-05;109.59552;142.87104;126.23328
FRUTAL;Bagasse TPP;-20.026119;-48.884738;0.025953178;0.033368371;0.029660774;NA;NA;NA;NA;NA;NA;0.029660774;0.433788826;0.2317248;2.13187E-05;2.7807E-05;2.45628E-05;33.27568128;43.37888256;38.32728192
OUROESTE;Bagasse TPP;-20.006831;-50.365880;0.0193536;0.0248832;0.0221184;NA;NA;NA;NA;NA;NA;0.0221184;0.3234816;0.1728;1.58976E-05;0.000020736;1.83168E-05;24.81408;32.34816;28.58112
ALCOOLVALE;Bagasse TPP;-20.053653;-51.111467;0.00677376;0.00870912;0.00774144;NA;NA;NA;NA;NA;NA;0.00774144;0.11321856;0.06048;5.56416E-06;7.2576E-06;6.41088E-06;8.684928;11.321856;10.003392
TRIUNFO;Bagasse TPP;-9.631763;-36.199579;0.0225792;0.0290304;0.0258048;NA;NA;NA;NA;NA;NA;0.0258048;0.3773952;0.2016;1.85472E-05;0.000024192;2.13696E-05;28.94976;37.73952;33.34464
USINA BERTOLO AÇÚCAR E ÁLCOOL;Bagasse TPP;-21.087817;-48.653921;0.00612864;0.00787968;0.00700416;NA;NA;NA;NA;NA;NA;0.00700416;0.10243584;0.05472;5.03424E-06;6.5664E-06;5.80032E-06;7.857792;10.243584;9.050688
CERBA;Bagasse TPP;-22.721444;-47.597113;0.000580608;0.000746496;0.000663552;NA;NA;NA;NA;NA;NA;0.000663552;0.009704448;0.005184;4.76928E-07;6.2208E-07;5.49504E-07;0.7444224;0.9704448;0.8574336
PEDROSA;Bagasse TPP;-8.471329;-35.540327;0.00709632;0.00912384;0.00811008;NA;NA;NA;NA;NA;NA;0.00811008;0.11860992;0.06336;5.82912E-06;7.6032E-06;6.71616E-06;9.098496;11.860992;10.479744
INTERLAGOS;Bagasse TPP;-20.626738;-51.085484;0.064512;0.082944;0.073728;NA;NA;NA;NA;NA;NA;0.073728;1.078272;0.576;0.000052992;0.00006912;0.000061056;82.7136;107.8272;95.2704
BEM BRASIL;Bagasse TPP;-19.632869;-46.976761;0.0034272;0.0044064;0.0039168;NA;NA;NA;NA;NA;NA;0.0039168;0.0572832;0.0306;2.8152E-06;0.000003672;3.2436E-06;4.39416;5.72832;5.06124
BURITI;Bagasse TPP;-20.182455;-47.716855;0.008064;0.010368;0.009216;NA;NA;NA;NA;NA;NA;0.009216;0.134784;0.072;0.000006624;0.00000864;0.000007632;10.3392;13.4784;11.9088
CÓRREGO AZUL;Bagasse TPP;-21.560458;-49.868082;0.000838656;0.001078272;0.000958464;NA;NA;NA;NA;NA;NA;0.000958464;0.014017536;0.007488;6.88896E-07;8.9856E-07;7.93728E-07;1.0752768;1.4017536;1.2385152
ITAPAGIPE;Bagasse TPP;-19.899064;-49.357223;0.0096768;0.0124416;0.0110592;NA;NA;NA;NA;NA;NA;0.0110592;0.1617408;0.0864;7.9488E-06;0.000010368;9.1584E-06;12.40704;16.17408;14.29056
CEM (ANTIGA CAMEN);Bagasse TPP;-17.734926;-49.135929;0.0193536;0.0248832;0.0221184;NA;NA;NA;NA;NA;NA;0.0221184;0.3234816;0.1728;1.58976E-05;0.000020736;1.83168E-05;24.81408;32.34816;28.58112
CENTRO OESTE IGUATEMI;Bagasse TPP;-23.469070;-54.184301;0.0064512;0.0082944;0.0073728;NA;NA;NA;NA;NA;NA;0.0073728;0.1078272;0.0576;5.2992E-06;0.000006912;6.1056E-06;8.27136;10.78272;9.52704
CITROVITA CATANDUVA;Bagasse TPP;-21.124940;-48.961370;0.031972147;0.041107046;0.036539597;NA;NA;NA;NA;NA;NA;0.036539597;0.534391603;0.2854656;2.62628E-05;3.42559E-05;3.02594E-05;40.99286016;53.43916032;47.21601024
UNIDADE SANTO INÁCIO - USI;Bagasse TPP;-22.692087;-51.784801;0.112896;0.145152;0.129024;NA;NA;NA;NA;NA;NA;0.129024;1.886976;1.008;0.000092736;0.00012096;0.000106848;144.7488;188.6976;166.7232
BOA VISTA;Bagasse TPP;-18.444072;-50.430114;0.129024;0.165888;0.147456;NA;NA;NA;NA;NA;NA;0.147456;2.156544;1.152;0.000105984;0.00013824;0.000122112;165.4272;215.6544;190.5408
ENERGÉTICA SANTA HELENA;Bagasse TPP;-22.275437;-53.368272;0.00516096;0.00663552;0.00589824;NA;NA;NA;NA;NA;NA;0.00589824;0.08626176;0.04608;4.23936E-06;5.5296E-06;4.88448E-06;6.617088;8.626176;7.621632
SALI;Bagasse TPP;-9.553958;-35.741719;0.01596672;0.02052864;0.01824768;NA;NA;NA;NA;NA;NA;0.01824768;0.26687232;0.14256;1.31155E-05;1.71072E-05;1.51114E-05;20.471616;26.687232;23.579424
VERÍSSIMO;Bagasse TPP;-19.669562;-48.308466;0.008064;0.010368;0.009216;NA;NA;NA;NA;NA;NA;0.009216;0.134784;0.072;0.000006624;0.00000864;0.000007632;10.3392;13.4784;11.9088
CARNEIRINHO;Bagasse TPP;-19.699103;-50.677420;0.0387072;0.0497664;0.0442368;NA;NA;NA;NA;NA;NA;0.0442368;0.6469632;0.3456;3.17952E-05;0.000041472;3.66336E-05;49.62816;64.69632;57.16224
SAFI;Bagasse TPP;-21.475473;-54.376811;0.007483392;0.009621504;0.008552448;NA;NA;NA;NA;NA;NA;0.008552448;0.125079552;0.066816;6.14707E-06;8.01792E-06;7.0825E-06;9.5947776;12.5079552;11.0513664
TGN;Bagasse TPP;-23.037183;-49.146485;0.00193536;0.00248832;0.00221184;NA;NA;NA;NA;NA;NA;0.00221184;0.03234816;0.01728;1.58976E-06;2.0736E-06;1.83168E-06;2.481408;3.234816;2.858112
DESTILARIA PORTO ALEGRE;Bagasse TPP;-8.912566;-35.725861;0.00387072;0.00497664;0.00442368;NA;NA;NA;NA;NA;NA;0.00442368;0.06469632;0.03456;3.17952E-06;4.1472E-06;3.66336E-06;4.962816;6.469632;5.716224
IACANGA;Bagasse TPP;-21.899014;-49.030111;0.0628992;0.0808704;0.0718848;NA;NA;NA;NA;NA;NA;0.0718848;1.0513152;0.5616;5.16672E-05;0.000067392;5.95296E-05;80.64576;105.13152;92.88864
PIONEIROS II;Bagasse TPP;-20.684771;-50.923053;0.056448;0.072576;0.064512;NA;NA;NA;NA;NA;NA;0.064512;0.943488;0.504;0.000046368;0.00006048;0.000053424;72.3744;94.3488;83.3616
NOVA MORENO;Bagasse TPP;-20.760631;-49.698604;0.025004851;0.032149094;0.028576973;NA;NA;NA;NA;NA;NA;0.028576973;0.417938227;0.2232576;2.05397E-05;2.67909E-05;2.36653E-05;32.05979136;41.79382272;36.92680704
POTIRENDABA (ANTIGA CERRADINHO POTIRENDABA);Bagasse TPP;-21.048518;-49.360706;0.06483456;0.08335872;0.07409664;NA;NA;NA;NA;NA;NA;0.07409664;1.08366336;0.57888;5.3257E-05;6.94656E-05;6.13613E-05;83.127168;108.366336;95.746752
PAU D´ALHO;Bagasse TPP;-22.813705;-50.059521;0.006709248;0.008626176;0.007667712;NA;NA;NA;NA;NA;NA;0.007667712;0.112140288;0.059904;5.51117E-06;7.18848E-06;6.34982E-06;8.6022144;11.2140288;9.9081216
USINA BONFIM;Bagasse TPP;-21.347427;-48.225510;0.1790208;0.2301696;0.2045952;NA;NA;NA;NA;NA;NA;0.2045952;2.9922048;1.5984;0.000147053;0.000191808;0.00016943;229.53024;299.22048;264.37536
JUNCO NOVO;Bagasse TPP;-10.505711;-37.053135;0.00193536;0.00248832;0.00221184;NA;NA;NA;NA;NA;NA;0.00221184;0.03234816;0.01728;1.58976E-06;2.0736E-06;1.83168E-06;2.481408;3.234816;2.858112
ANGÉLICA;Bagasse TPP;-22.167133;-53.745692;0.1548288;0.1990656;0.1769472;NA;NA;NA;NA;NA;NA;0.1769472;2.5878528;1.3824;0.000127181;0.000165888;0.000146534;198.51264;258.78528;228.64896
USINA VALE;Bagasse TPP;-20.615896;-49.300069;0.00709632;0.00912384;0.00811008;NA;NA;NA;NA;NA;NA;0.00811008;0.11860992;0.06336;5.82912E-06;7.6032E-06;6.71616E-06;9.098496;11.860992;10.479744
SÃO JOSÉ DO PINHEIRO;Bagasse TPP;-10.812349;-37.170040;0.02370816;0.03048192;0.02709504;NA;NA;NA;NA;NA;NA;0.02709504;0.39626496;0.21168;1.94746E-05;2.54016E-05;2.24381E-05;30.397248;39.626496;35.011872
USINA MONTE ALEGRE;Bagasse TPP;-21.311929;-46.364313;0.0298368;0.0383616;0.0340992;NA;NA;NA;NA;NA;NA;0.0340992;0.4987008;0.2664;2.45088E-05;0.000031968;2.82384E-05;38.25504;49.87008;44.06256
CORURIPE ENERGÉTICA - FILIAL CAMPO FLORIDO;Bagasse TPP;-19.767047;-48.582931;0.048384;0.062208;0.055296;NA;NA;NA;NA;NA;NA;0.055296;0.808704;0.432;0.000039744;0.00005184;0.000045792;62.0352;80.8704;71.4528
CERRADÃO;Bagasse TPP;-20.016696;-48.952405;0.0870912;0.1119744;0.0995328;NA;NA;NA;NA;NA;NA;0.0995328;1.4556672;0.7776;7.15392E-05;0.000093312;8.24256E-05;111.66336;145.56672;128.61504
COCAL II;Bagasse TPP;-22.395095;-51.520753;0.129024;0.165888;0.147456;NA;NA;NA;NA;NA;NA;0.147456;2.156544;1.152;0.000105984;0.00013824;0.000122112;165.4272;215.6544;190.5408
PIRAPAMA;Bagasse TPP;-8.112096;-35.286631;0.04032;0.05184;0.04608;NA;NA;NA;NA;NA;NA;0.04608;0.67392;0.36;0.00003312;0.0000432;0.00003816;51.696;67.392;59.544
LDC BIOENERGIA LAGOA DA PRATA (ANTIGA LOUIS DREYFUS LAGOA DA PRATA);Bagasse TPP;-20.018989;-45.514258;0.137088;0.176256;0.156672;NA;NA;NA;NA;NA;NA;0.156672;2.291328;1.224;0.000112608;0.00014688;0.000129744;175.7664;229.1328;202.4496
LDC BIOENERGIA RIO BRILHANTE (ANTIGA LOUIS DREYFUS RIO BRILHANTE);Bagasse TPP;-21.787157;-54.528522;0.145152;0.186624;0.165888;NA;NA;NA;NA;NA;NA;0.165888;2.426112;1.296;0.000119232;0.00015552;0.000137376;186.1056;242.6112;214.3584
TOTAL;Bagasse TPP;-20.014332;-45.955029;0.04032;0.05184;0.04608;NA;NA;NA;NA;NA;NA;0.04608;0.67392;0.36;0.00003312;0.0000432;0.00003816;51.696;67.392;59.544
SÃO JUDAS TADEU;Bagasse TPP;-15.341599;-43.683926;0.0903168;0.1161216;0.1032192;NA;NA;NA;NA;NA;NA;0.1032192;1.5095808;0.8064;7.41888E-05;0.000096768;8.54784E-05;115.79904;150.95808;133.37856
EQUIPAV II;Bagasse TPP;-21.562564;-49.851319;0.129024;0.165888;0.147456;NA;NA;NA;NA;NA;NA;0.147456;2.156544;1.152;0.000105984;0.00013824;0.000122112;165.4272;215.6544;190.5408
GUARIROBA;Bagasse TPP;-20.186473;-49.698401;0.0193536;0.0248832;0.0221184;NA;NA;NA;NA;NA;NA;0.0221184;0.3234816;0.1728;1.58976E-05;0.000020736;1.83168E-05;24.81408;32.34816;28.58112
COMVAP;Bagasse TPP;-4.591256;-42.867184;0.01419264;0.01824768;0.01622016;NA;NA;NA;NA;NA;NA;0.01622016;0.23721984;0.12672;1.16582E-05;1.52064E-05;1.34323E-05;18.196992;23.721984;20.959488
DA MATA;Bagasse TPP;-21.244303;-50.869571;0.064512;0.082944;0.073728;NA;NA;NA;NA;NA;NA;0.073728;1.078272;0.576;0.000052992;0.00006912;0.000061056;82.7136;107.8272;95.2704
NOROESTE PAULISTA;Bagasse TPP;-20.664637;-49.924981;0.096768;0.124416;0.110592;NA;NA;NA;NA;NA;NA;0.110592;1.617408;0.864;0.000079488;0.00010368;0.000091584;124.0704;161.7408;142.9056
UBERABA;Bagasse TPP;-19.748313;-47.914878;0.0193536;0.0248832;0.0221184;NA;NA;NA;NA;NA;NA;0.0221184;0.3234816;0.1728;1.58976E-05;0.000020736;1.83168E-05;24.81408;32.34816;28.58112
MONÇÕES;Bagasse TPP;-20.876215;-50.129441;0.032256;0.041472;0.036864;NA;NA;NA;NA;NA;NA;0.036864;0.539136;0.288;0.000026496;0.00003456;0.000030528;41.3568;53.9136;47.6352
USAÇÚCAR - TERRA RICA;Bagasse TPP;-22.701249;-52.629300;0.0266112;0.0342144;0.0304128;NA;NA;NA;NA;NA;NA;0.0304128;0.4447872;0.2376;2.18592E-05;0.000028512;2.51856E-05;34.11936;44.47872;39.29904
SANTA INES;Bagasse TPP;-21.134924;-48.059082;0.00419328;0.00539136;0.00479232;NA;NA;NA;NA;NA;NA;0.00479232;0.07008768;0.03744;3.44448E-06;4.4928E-06;3.96864E-06;5.376384;7.008768;6.192576
PINDORAMA;Bagasse TPP;-10.119224;-36.168209;0.0064512;0.0082944;0.0073728;NA;NA;NA;NA;NA;NA;0.0073728;0.1078272;0.0576;5.2992E-06;0.000006912;6.1056E-06;8.27136;10.78272;9.52704
LOUIS DREYFUS COMMODITIES AGROINDUSTRIAL;Bagasse TPP;-23.582392;-46.831505;0.0064512;0.0082944;0.0073728;NA;NA;NA;NA;NA;NA;0.0073728;0.1078272;0.0576;5.2992E-06;0.000006912;6.1056E-06;8.27136;10.78272;9.52704
VIRGOLINO DE OLIVEIRA - FAZENDA CANOAS;Bagasse TPP;-21.053407;-49.697843;0.008064;0.010368;0.009216;NA;NA;NA;NA;NA;NA;0.009216;0.134784;0.072;0.000006624;0.00000864;0.000007632;10.3392;13.4784;11.9088
AGROALCOOL;Bagasse TPP;-20.748645;-49.719217;0.00193536;0.00248832;0.00221184;NA;NA;NA;NA;NA;NA;0.00221184;0.03234816;0.01728;1.58976E-06;2.0736E-06;1.83168E-06;2.481408;3.234816;2.858112
MONTEVERDE;Bagasse TPP;-22.550974;-55.716097;0.032256;0.041472;0.036864;NA;NA;NA;NA;NA;NA;0.036864;0.539136;0.288;0.000026496;0.00003456;0.000030528;41.3568;53.9136;47.6352
VISTA ALEGRE I (ANTIGA ENERGÉTICA VISTA ALEGRE);Bagasse TPP;-21.611607;-55.180381;0.048384;0.062208;0.055296;NA;NA;NA;NA;NA;NA;0.055296;0.808704;0.432;0.000039744;0.00005184;0.000045792;62.0352;80.8704;71.4528
PORTO DAS ÁGUAS;Bagasse TPP;-18.410882;-52.642126;0.112896;0.145152;0.129024;NA;NA;NA;NA;NA;NA;0.129024;1.886976;1.008;0.000092736;0.00012096;0.000106848;144.7488;188.6976;166.7232
NOBLE ENERGIA;Bagasse TPP;-20.660239;-49.927799;0.048384;0.062208;0.055296;NA;NA;NA;NA;NA;NA;0.055296;0.808704;0.432;0.000039744;0.00005184;0.000045792;62.0352;80.8704;71.4528
SANTA LUZIA I;Bagasse TPP;-21.452608;-54.381875;0.209664;0.269568;0.239616;NA;NA;NA;NA;NA;NA;0.239616;3.504384;1.872;0.000172224;0.00022464;0.000198432;268.8192;350.4384;309.6288
PORTO ALEGRE;Bagasse TPP;-8.910043;-35.713931;0.00387072;0.00497664;0.00442368;NA;NA;NA;NA;NA;NA;0.00442368;0.06469632;0.03456;3.17952E-06;4.1472E-06;3.66336E-06;4.962816;6.469632;5.716224
CONQUISTA DO PONTAL;Bagasse TPP;-22.270824;-51.890038;0.177408;0.228096;0.202752;NA;NA;NA;NA;NA;NA;0.202752;2.965248;1.584;0.000145728;0.00019008;0.000167904;227.4624;296.5248;261.9936
CAÇÚ I;Bagasse TPP;-18.575739;-51.131785;0.209664;0.269568;0.239616;NA;NA;NA;NA;NA;NA;0.239616;3.504384;1.872;0.000172224;0.00022464;0.000198432;268.8192;350.4384;309.6288
GUAÍRA ENERGÉTICA;Bagasse TPP;-20.313081;-48.298430;0.088704;0.114048;0.101376;NA;NA;NA;NA;NA;NA;0.101376;1.482624;0.792;0.000072864;0.00009504;0.000083952;113.7312;148.2624;130.9968
COLOMBO PALESTINA;Bagasse TPP;-20.390335;-49.445647;0.024192;0.031104;0.027648;NA;NA;NA;NA;NA;NA;0.027648;0.404352;0.216;0.000019872;0.00002592;0.000022896;31.0176;40.4352;35.7264
CACHOEIRA DOURADA;Bagasse TPP;-18.489251;-49.470448;0.064512;0.082944;0.073728;NA;NA;NA;NA;NA;NA;0.073728;1.078272;0.576;0.000052992;0.00006912;0.000061056;82.7136;107.8272;95.2704
VALE DO TIJUCO;Bagasse TPP;-19.741125;-47.877666;0.072576;0.093312;0.082944;NA;NA;NA;NA;NA;NA;0.082944;1.213056;0.648;0.000059616;0.00007776;0.000068688;93.0528;121.3056;107.1792
CLEALCO-QUEIROZ;Bagasse TPP;-21.804890;-50.217727;0.072576;0.093312;0.082944;NA;NA;NA;NA;NA;NA;0.082944;1.213056;0.648;0.000059616;0.00007776;0.000068688;93.0528;121.3056;107.1792
UNIDADE DE BIOENERGIA COSTA RICA;Bagasse TPP;-18.551578;-53.139214;0.128746598;0.165531341;0.14713897;NA;NA;NA;NA;NA;NA;0.14713897;2.15190743;1.1495232;0.000105756;0.000137943;0.000121849;165.0715315;215.190743;190.1311373
UNIDADE DE BIOENERGIA ALTO TAQUARI;Bagasse TPP;-17.811642;-53.288886;0.11725056;0.15075072;0.13400064;NA;NA;NA;NA;NA;NA;0.13400064;1.95975936;1.04688;9.6313E-05;0.000125626;0.000110969;150.331968;195.975936;173.153952
UNIDADE DE BIOENERGIA ÁGUA EMENDADA;Bagasse TPP;-17.525777;-52.084929;0.128746598;0.165531341;0.14713897;NA;NA;NA;NA;NA;NA;0.14713897;2.15190743;1.1495232;0.000105756;0.000137943;0.000121849;165.0715315;215.190743;190.1311373
UNIDADE DE BIOENERGIA MORRO VERMELHO;Bagasse TPP;-17.580820;-52.541181;0.11725056;0.15075072;0.13400064;NA;NA;NA;NA;NA;NA;0.13400064;1.95975936;1.04688;9.6313E-05;0.000125626;0.000110969;150.331968;195.975936;173.153952
CHAPADÃO AGROENERGIA;Bagasse TPP;-21.166517;-50.181425;0.1483776;0.1907712;0.1695744;NA;NA;NA;NA;NA;NA;0.1695744;2.4800256;1.3248;0.000121882;0.000158976;0.000140429;190.24128;248.00256;219.12192
JATAÍ;Bagasse TPP;-17.908282;-51.681837;0.169344;0.217728;0.193536;NA;NA;NA;NA;NA;NA;0.193536;2.830464;1.512;0.000139104;0.00018144;0.000160272;217.1232;283.0464;250.0848
SÃO FERNANDO AÇÚCAR E ÁLCOOL;Bagasse TPP;-22.221182;-54.723002;0.0774144;0.0995328;0.0884736;NA;NA;NA;NA;NA;NA;0.0884736;1.2939264;0.6912;6.35904E-05;0.000082944;7.32672E-05;99.25632;129.39264;114.32448
VALE DO SÃO SIMÃO;Bagasse TPP;-18.856949;-50.131334;0.088704;0.114048;0.101376;NA;NA;NA;NA;NA;NA;0.101376;1.482624;0.792;0.000072864;0.00009504;0.000083952;113.7312;148.2624;130.9968
BARRA BIOENERGIA;Bagasse TPP;-22.476708;-48.536750;0.2193408;0.2820096;0.2506752;NA;NA;NA;NA;NA;NA;0.2506752;3.6661248;1.9584;0.000180173;0.000235008;0.00020759;281.22624;366.61248;323.91936
BEN BIOENERGIA;Bagasse TPP;-9.915217;-36.333194;0.0854784;0.1099008;0.0976896;NA;NA;NA;NA;NA;NA;0.0976896;1.4287104;0.7632;7.02144E-05;0.000091584;8.08992E-05;109.59552;142.87104;126.23328
BIOPAV II;Bagasse TPP;-21.160740;-50.182912;0.104832;0.134784;0.119808;NA;NA;NA;NA;NA;NA;0.119808;1.752192;0.936;0.000086112;0.00011232;0.000099216;134.4096;175.2192;154.8144
BIOENERGÉTICA VALE DO PARACATU - BEVAP;Bagasse TPP;-17.734164;-46.172472;0.088704;0.114048;0.101376;NA;NA;NA;NA;NA;NA;0.101376;1.482624;0.792;0.000072864;0.00009504;0.000083952;113.7312;148.2624;130.9968
RIO PARDO;Bagasse TPP;-23.052979;-49.129748;0.096768;0.124416;0.110592;NA;NA;NA;NA;NA;NA;0.110592;1.617408;0.864;0.000079488;0.00010368;0.000091584;124.0704;161.7408;142.9056
CANABRAVA;Bagasse TPP;-21.672795;-41.311902;0.0709632;0.0912384;0.0811008;NA;NA;NA;NA;NA;NA;0.0811008;1.1860992;0.6336;5.82912E-05;0.000076032;6.71616E-05;90.98496;118.60992;104.79744
TROPICAL BIOENERGIA;Bagasse TPP;-17.367916;-49.905406;0.088704;0.114048;0.101376;NA;NA;NA;NA;NA;NA;0.101376;1.482624;0.792;0.000072864;0.00009504;0.000083952;113.7312;148.2624;130.9968
ITUMBIARA;Bagasse TPP;-18.376252;-49.204292;0.0903168;0.1161216;0.1032192;NA;NA;NA;NA;NA;NA;0.1032192;1.5095808;0.8064;7.41888E-05;0.000096768;8.54784E-05;115.79904;150.95808;133.37856
ITUIUTABA;Bagasse TPP;-18.965092;-49.489166;0.0903168;0.1161216;0.1032192;NA;NA;NA;NA;NA;NA;0.1032192;1.5095808;0.8064;7.41888E-05;0.000096768;8.54784E-05;115.79904;150.95808;133.37856
GUARANI - TANABI;Bagasse TPP;-20.618185;-49.665297;0.0612864;0.0787968;0.0700416;NA;NA;NA;NA;NA;NA;0.0700416;1.0243584;0.5472;5.03424E-05;0.000065664;5.80032E-05;78.57792;102.43584;90.50688
TABU;Bagasse TPP;-7.509367;-34.878019;0.01354752;0.01741824;0.01548288;NA;NA;NA;NA;NA;NA;0.01548288;0.22643712;0.12096;1.11283E-05;1.45152E-05;1.28218E-05;17.369856;22.643712;20.006784
CAARAPÓ;Bagasse TPP;-22.610073;-54.814483;0.1225728;0.1575936;0.1400832;NA;NA;NA;NA;NA;NA;0.1400832;2.0487168;1.0944;0.000100685;0.000131328;0.000116006;157.15584;204.87168;181.01376
AMANDINA;Bagasse TPP;-22.306109;-53.848312;0.064512;0.082944;0.073728;NA;NA;NA;NA;NA;NA;0.073728;1.078272;0.576;0.000052992;0.00006912;0.000061056;82.7136;107.8272;95.2704
BIOLINS;Bagasse TPP;-21.675278;-49.780312;0.0451584;0.0580608;0.0516096;NA;NA;NA;NA;NA;NA;0.0516096;0.7547904;0.4032;3.70944E-05;0.000048384;4.27392E-05;57.89952;75.47904;66.68928
PASSOS;Bagasse TPP;-20.732616;-46.573274;0.022724352;0.029217024;0.025970688;NA;NA;NA;NA;NA;NA;0.025970688;0.379821312;0.202896;1.86664E-05;2.43475E-05;2.1507E-05;29.1358656;37.9821312;33.5589984
MADECAL;Bagasse TPP;-26.784158;-50.954829;0.00516096;0.00663552;0.00589824;NA;NA;NA;NA;NA;NA;0.00589824;0.08626176;0.04608;4.23936E-06;5.5296E-06;4.88448E-06;6.617088;8.626176;7.621632
SÃO MIGUEL;Bagasse TPP;-9.794159;-36.048588;0.02128896;0.02737152;0.02433024;NA;NA;NA;NA;NA;NA;0.02433024;0.35582976;0.19008;1.74874E-05;2.28096E-05;2.01485E-05;27.295488;35.582976;31.439232
MONTERREY;Bagasse TPP;-23.387164;-46.510155;0.0056448;0.0072576;0.0064512;NA;NA;NA;NA;NA;NA;0.0064512;0.0943488;0.0504;4.6368E-06;0.000006048;5.3424E-06;7.23744;9.43488;8.33616
SANTA JULIANA;Bagasse TPP;-19.316906;-47.547497;0.1419264;0.1824768;0.1622016;NA;NA;NA;NA;NA;NA;0.1622016;2.3721984;1.2672;0.000116582;0.000152064;0.000134323;181.96992;237.21984;209.59488
BALDIN;Bagasse TPP;-22.011698;-47.445768;0.072576;0.093312;0.082944;NA;NA;NA;NA;NA;NA;0.082944;1.213056;0.648;0.000059616;0.00007776;0.000068688;93.0528;121.3056;107.1792
LARANJEIRAS;Bagasse TPP;-7.659250;-35.322135;0.00778176;0.01000512;0.00889344;NA;NA;NA;NA;NA;NA;0.00889344;0.13006656;0.06948;6.39216E-06;8.3376E-06;7.36488E-06;9.977328;13.006656;11.491992
MUNDIAL;Bagasse TPP;-21.153199;-51.113812;0.00580608;0.00746496;0.00663552;NA;NA;NA;NA;NA;NA;0.00663552;0.09704448;0.05184;4.76928E-06;6.2208E-06;5.49504E-06;7.444224;9.704448;8.574336
IPAUSSU BIOENERGIA;Bagasse TPP;-23.073656;-49.590730;0.1225728;0.1575936;0.1400832;NA;NA;NA;NA;NA;NA;0.1400832;2.0487168;1.0944;0.000100685;0.000131328;0.000116006;157.15584;204.87168;181.01376
BOM JESUS;Bagasse TPP;-8.267269;-35.022032;0.00516096;0.00663552;0.00589824;NA;NA;NA;NA;NA;NA;0.00589824;0.08626176;0.04608;4.23936E-06;5.5296E-06;4.88448E-06;6.617088;8.626176;7.621632
ITAPURANGA;Bagasse TPP;-15.556943;-49.928509;0.00451584;0.00580608;0.00516096;NA;NA;NA;NA;NA;NA;0.00516096;0.07547904;0.04032;3.70944E-06;4.8384E-06;4.27392E-06;5.789952;7.547904;6.668928
UNIVALEM BIOENERGIA;Bagasse TPP;-21.213473;-50.868156;0.072576;0.093312;0.082944;NA;NA;NA;NA;NA;NA;0.082944;1.213056;0.648;0.000059616;0.00007776;0.000068688;93.0528;121.3056;107.1792
DVPA;Bagasse TPP;-17.236733;-46.848537;0.0451584;0.0580608;0.0516096;NA;NA;NA;NA;NA;NA;0.0516096;0.7547904;0.4032;3.70944E-05;0.000048384;4.27392E-05;57.89952;75.47904;66.68928
COLOMBO SANTA ALBERTINA;Bagasse TPP;-20.032216;-50.737458;0.08064;0.10368;0.09216;NA;NA;NA;NA;NA;NA;0.09216;1.34784;0.72;0.00006624;0.0000864;0.00007632;103.392;134.784;119.088
IPÊ (ANTIGA CENI);Bagasse TPP;-21.116831;-51.478740;0.04032;0.05184;0.04608;NA;NA;NA;NA;NA;NA;0.04608;0.67392;0.36;0.00003312;0.0000432;0.00003816;51.696;67.392;59.544
IACO AGRÍCOLA;Bagasse TPP;-18.802688;-52.603554;0.048384;0.062208;0.055296;NA;NA;NA;NA;NA;NA;0.055296;0.808704;0.432;0.000039744;0.00005184;0.000045792;62.0352;80.8704;71.4528
JOSÉ BONIFÁCIO;Bagasse TPP;-21.053794;-49.697339;0.0306432;0.0393984;0.0350208;NA;NA;NA;NA;NA;NA;0.0350208;0.5121792;0.2736;2.51712E-05;0.000032832;2.90016E-05;39.28896;51.21792;45.25344
NOBLE ENERGIA II;Bagasse TPP;-20.352886;-50.188008;0.048384;0.062208;0.055296;NA;NA;NA;NA;NA;NA;0.055296;0.808704;0.432;0.000039744;0.00005184;0.000045792;62.0352;80.8704;71.4528
VICENTINA;Bagasse TPP;-22.404224;-54.446375;0.0032256;0.0041472;0.0036864;NA;NA;NA;NA;NA;NA;0.0036864;0.0539136;0.0288;2.6496E-06;0.000003456;3.0528E-06;4.13568;5.39136;4.76352
MERIDIANO;Bagasse TPP;-20.457000;-50.207081;0.096768;0.124416;0.110592;NA;NA;NA;NA;NA;NA;0.110592;1.617408;0.864;0.000079488;0.00010368;0.000091584;124.0704;161.7408;142.9056
BIOENERGÉTICA AROEIRA;Bagasse TPP;-18.621175;-48.685711;0.0258048;0.0331776;0.0294912;NA;NA;NA;NA;NA;NA;0.0294912;0.4313088;0.2304;2.11968E-05;0.000027648;2.44224E-05;33.08544;43.13088;38.10816
CODORA;Bagasse TPP;-15.301860;-49.083515;0.0774144;0.0995328;0.0884736;NA;NA;NA;NA;NA;NA;0.0884736;1.2939264;0.6912;6.35904E-05;0.000082944;7.32672E-05;99.25632;129.39264;114.32448
VITÓRIA;Bagasse TPP;-8.686566;-35.580813;0.00681408;0.00876096;0.00778752;NA;NA;NA;NA;NA;NA;0.00778752;0.11389248;0.06084;5.59728E-06;7.3008E-06;6.44904E-06;8.736624;11.389248;10.062936
VALE DO IVAÍ - CAMBUÍ;Bagasse TPP;-24.003310;-51.821732;0.00580608;0.00746496;0.00663552;NA;NA;NA;NA;NA;NA;0.00663552;0.09704448;0.05184;4.76928E-06;6.2208E-06;5.49504E-06;7.444224;9.704448;8.574336
CABRERA;Bagasse TPP;-19.542453;-50.581143;0.04032;0.05184;0.04608;NA;NA;NA;NA;NA;NA;0.04608;0.67392;0.36;0.00003312;0.0000432;0.00003816;51.696;67.392;59.544
SALGADO;Bagasse TPP;-8.395926;-35.058247;0.00580608;0.00746496;0.00663552;NA;NA;NA;NA;NA;NA;0.00663552;0.09704448;0.05184;4.76928E-06;6.2208E-06;5.49504E-06;7.444224;9.704448;8.574336
COPLASA;Bagasse TPP;-21.025407;-49.918759;0.016128;0.020736;0.018432;NA;NA;NA;NA;NA;NA;0.018432;0.269568;0.144;0.000013248;0.00001728;0.000015264;20.6784;26.9568;23.8176
CAMPO LINDO;Bagasse TPP;-10.487607;-37.192394;0.04032;0.05184;0.04608;NA;NA;NA;NA;NA;NA;0.04608;0.67392;0.36;0.00003312;0.0000432;0.00003816;51.696;67.392;59.544
MANACÁ;Bagasse TPP;-18.384051;-49.202310;0.008064;0.010368;0.009216;NA;NA;NA;NA;NA;NA;0.009216;0.134784;0.072;0.000006624;0.00000864;0.000007632;10.3392;13.4784;11.9088
BURITI;Bagasse TPP;-20.182361;-47.716712;0.08064;0.10368;0.09216;NA;NA;NA;NA;NA;NA;0.09216;1.34784;0.72;0.00006624;0.0000864;0.00007632;103.392;134.784;119.088
IBÉRIA;Bagasse TPP;-22.251959;-50.545607;0.010515456;0.013519872;0.012017664;NA;NA;NA;NA;NA;NA;0.012017664;0.175758336;0.093888;8.6377E-06;1.12666E-05;9.95213E-06;13.4823168;17.5758336;15.5290752
VIRALCOOL CASTILHO;Bagasse TPP;-20.891003;-51.501970;0.08064;0.10368;0.09216;NA;NA;NA;NA;NA;NA;0.09216;1.34784;0.72;0.00006624;0.0000864;0.00007632;103.392;134.784;119.088
MOGIANA BIO-ENERGIA;Bagasse TPP;-20.586554;-47.880019;0.0064512;0.0082944;0.0073728;NA;NA;NA;NA;NA;NA;0.0073728;0.1078272;0.0576;5.2992E-06;0.000006912;6.1056E-06;8.27136;10.78272;9.52704
SELECTA;Bagasse TPP;-18.642740;-48.161331;0.01838592;0.02363904;0.02101248;NA;NA;NA;NA;NA;NA;0.02101248;0.30730752;0.16416;1.51027E-05;1.96992E-05;1.7401E-05;23.573376;30.730752;27.152064
DA PEDRA;Bagasse TPP;-21.174595;-47.629503;0.112896;0.145152;0.129024;NA;NA;NA;NA;NA;NA;0.129024;1.886976;1.008;0.000092736;0.00012096;0.000106848;144.7488;188.6976;166.7232
ROSA SA INDÚSTRIA E COMÉRCIO DE PRODUTOS AGRÍCOLAS;Bagasse TPP;-23.274548;-47.699435;0.002064384;0.002654208;0.002359296;NA;NA;NA;NA;NA;NA;0.002359296;0.034504704;0.018432;1.69574E-06;2.21184E-06;1.95379E-06;2.6468352;3.4504704;3.0486528
VALE DO TIJUCO II;Bagasse TPP;-19.700882;-47.973930;0.064512;0.082944;0.073728;NA;NA;NA;NA;NA;NA;0.073728;1.078272;0.576;0.000052992;0.00006912;0.000061056;82.7136;107.8272;95.2704
SÃO FERNANDO ENERGIA I;Bagasse TPP;-22.221390;-54.722467;0.08064;0.10368;0.09216;NA;NA;NA;NA;NA;NA;0.09216;1.34784;0.72;0.00006624;0.0000864;0.00007632;103.392;134.784;119.088
USINA LAGUNA AÇÚCAR E ÁLCOOL;Bagasse TPP;-22.478038;-55.746168;0.00387072;0.00497664;0.00442368;NA;NA;NA;NA;NA;NA;0.00442368;0.06469632;0.03456;3.17952E-06;4.1472E-06;3.66336E-06;4.962816;6.469632;5.716224
UNIDADE BOM SUCESSO;Bagasse TPP;-17.980494;-49.375411;0.0072576;0.0093312;0.0082944;NA;NA;NA;NA;NA;NA;0.0082944;0.1213056;0.0648;5.9616E-06;0.000007776;6.8688E-06;9.30528;12.13056;10.71792
PEDRO AFONSO;Bagasse TPP;-8.998591;-48.166578;0.129024;0.165888;0.147456;NA;NA;NA;NA;NA;NA;0.147456;2.156544;1.152;0.000105984;0.00013824;0.000122112;165.4272;215.6544;190.5408
BOM SUCESSO;Bagasse TPP;-17.993259;-49.365819;0.0024192;0.0031104;0.0027648;NA;NA;NA;NA;NA;NA;0.0027648;0.0404352;0.0216;1.9872E-06;0.000002592;2.2896E-06;3.10176;4.04352;3.57264
USINA CORURIPE AÇÚCAR E ÁLCOOL;Bagasse TPP;-19.728107;-50.225269;0.032256;0.041472;0.036864;NA;NA;NA;NA;NA;NA;0.036864;0.539136;0.288;0.000026496;0.00003456;0.000030528;41.3568;53.9136;47.6352
RIO VERMELHO;Bagasse TPP;-21.526519;-51.438565;0.064512;0.082944;0.073728;NA;NA;NA;NA;NA;NA;0.073728;1.078272;0.576;0.000052992;0.00006912;0.000061056;82.7136;107.8272;95.2704
PARANAPANEMA;Bagasse TPP;-22.462659;-51.760977;0.096768;0.124416;0.110592;NA;NA;NA;NA;NA;NA;0.110592;1.617408;0.864;0.000079488;0.00010368;0.000091584;124.0704;161.7408;142.9056
FIGUEIRA INDÚSTRIA E COMÉRCIO;Bagasse TPP;-21.076862;-50.122173;0.00709632;0.00912384;0.00811008;NA;NA;NA;NA;NA;NA;0.00811008;0.11860992;0.06336;5.82912E-06;7.6032E-06;6.71616E-06;9.098496;11.860992;10.479744
FISCHER;Bagasse TPP;-22.527428;-47.393033;0.008064;0.010368;0.009216;NA;NA;NA;NA;NA;NA;0.009216;0.134784;0.072;0.000006624;0.00000864;0.000007632;10.3392;13.4784;11.9088
COSTA BIOENERGIA;Bagasse TPP;-23.774738;-53.252707;0.024192;0.031104;0.027648;NA;NA;NA;NA;NA;NA;0.027648;0.404352;0.216;0.000019872;0.00002592;0.000022896;31.0176;40.4352;35.7264
ALCOESTE DESTILARIA FERNANDÓPOLIS;Bagasse TPP;-20.272873;-50.246408;0.006902784;0.008875008;0.007888896;NA;NA;NA;NA;NA;NA;0.007888896;0.115375104;0.061632;5.67014E-06;7.39584E-06;6.53299E-06;8.8503552;11.5375104;10.1939328
TAQUARI;Bagasse TPP;-10.498619;-37.060283;0.0129024;0.0165888;0.0147456;NA;NA;NA;NA;NA;NA;0.0147456;0.2156544;0.1152;1.05984E-05;0.000013824;1.22112E-05;16.54272;21.56544;19.05408
PAULICÉIA;Bagasse TPP;-21.305357;-51.831764;0.054432;0.069984;0.062208;NA;NA;NA;NA;NA;NA;0.062208;0.909792;0.486;0.000044712;0.00005832;0.000051516;69.7896;90.9792;80.3844
SÃO SIMÃO;Bagasse TPP;-18.983844;-50.574962;0.00677376;0.00870912;0.00774144;NA;NA;NA;NA;NA;NA;0.00774144;0.11321856;0.06048;5.56416E-06;7.2576E-06;6.41088E-06;8.684928;11.321856;10.003392
BROTAS;Bagasse TPP;-22.266829;-48.153793;0.112896;0.145152;0.129024;NA;NA;NA;NA;NA;NA;0.129024;1.886976;1.008;0.000092736;0.00012096;0.000106848;144.7488;188.6976;166.7232
CONQUISTA DE MINAS;Bagasse TPP;-19.933192;-47.538615;0.00580608;0.00746496;0.00663552;NA;NA;NA;NA;NA;NA;0.00663552;0.09704448;0.05184;4.76928E-06;6.2208E-06;5.49504E-06;7.444224;9.704448;8.574336
ENERVALE;Bagasse TPP;-17.729606;-46.152731;0.048384;0.062208;0.055296;NA;NA;NA;NA;NA;NA;0.055296;0.808704;0.432;0.000039744;0.00005184;0.000045792;62.0352;80.8704;71.4528
VIRÁLCOOL 2;Bagasse TPP;-20.995790;-48.219425;0.048384;0.062208;0.055296;NA;NA;NA;NA;NA;NA;0.055296;0.808704;0.432;0.000039744;0.00005184;0.000045792;62.0352;80.8704;71.4528
ENERGÉTICA ITAJUBARA;Bagasse TPP;-4.237171;-43.013909;0.00516096;0.00663552;0.00589824;NA;NA;NA;NA;NA;NA;0.00589824;0.08626176;0.04608;4.23936E-06;5.5296E-06;4.88448E-06;6.617088;8.626176;7.621632
BIO ALVORADA;Bagasse TPP;-18.426294;-49.192760;0.08064;0.10368;0.09216;NA;NA;NA;NA;NA;NA;0.09216;1.34784;0.72;0.00006624;0.0000864;0.00007632;103.392;134.784;119.088
SÃO MARTINHO ENERGIA;Bagasse TPP;-21.339502;-48.115602;0.0637056;0.0819072;0.0728064;NA;NA;NA;NA;NA;NA;0.0728064;1.0647936;0.5688;5.23296E-05;0.000068256;6.02928E-05;81.67968;106.47936;94.07952
UFL;Bagasse TPP;-22.859261;-51.386739;0.0677376;0.0870912;0.0774144;NA;NA;NA;NA;NA;NA;0.0774144;1.1321856;0.6048;5.56416E-05;0.000072576;6.41088E-05;86.84928;113.21856;100.03392
UNIÃO;Bagasse TPP;-8.333162;-35.354162;0.016128;0.020736;0.018432;NA;NA;NA;NA;NA;NA;0.018432;0.269568;0.144;0.000013248;0.00001728;0.000015264;20.6784;26.9568;23.8176
USALPA;Bagasse TPP;-21.500709;-51.421151;0.0048384;0.0062208;0.0055296;NA;NA;NA;NA;NA;NA;0.0055296;0.0808704;0.0432;3.9744E-06;0.000005184;4.5792E-06;6.20352;8.08704;7.14528
PAM DESTILARIA;Bagasse TPP;-17.219287;-46.839849;0.00193536;0.00248832;0.00221184;NA;NA;NA;NA;NA;NA;0.00221184;0.03234816;0.01728;1.58976E-06;2.0736E-06;1.83168E-06;2.481408;3.234816;2.858112
SANTA MARIA AÇUCAREIRA;Bagasse TPP;-9.045900;-35.402154;0.00741888;0.00953856;0.00847872;NA;NA;NA;NA;NA;NA;0.00847872;0.12400128;0.06624;6.09408E-06;7.9488E-06;7.02144E-06;9.512064;12.400128;10.956096
FURLAN AVARÉ;Bagasse TPP;-23.112499;-48.905700;0.048384;0.062208;0.055296;NA;NA;NA;NA;NA;NA;0.055296;0.808704;0.432;0.000039744;0.00005184;0.000045792;62.0352;80.8704;71.4528
BAMBUÍ;Bagasse TPP;-20.016243;-45.980555;0.048384;0.062208;0.055296;NA;NA;NA;NA;NA;NA;0.055296;0.808704;0.432;0.000039744;0.00005184;0.000045792;62.0352;80.8704;71.4528
CEPASA;Bagasse TPP;-8.126722;-34.996710;0.008064;0.010368;0.009216;NA;NA;NA;NA;NA;NA;0.009216;0.134784;0.072;0.000006624;0.00000864;0.000007632;10.3392;13.4784;11.9088
