Name;Sector;Lat;Long;NOx-low (Gg/year);NOx-high (Gg/year);NOx-mean (Gg/year);SOx-low(Gg/year);SOx-high(Gg/year);SOx-mean(Gg/year);CO-low(Gg/year);CO-high(Gg/year);CO-mean(Gg/year);PM-low(Gg/year);PM-high(Gg/year);PM-mean(Gg/year);TOC-low(Gg/year);TOC-high(Gg/year);TOC-mean(Gg/year);CO2-low(Gg/year);CO2-high(Gg/year);CO2-mean(Gg/year)
SANTANA;Diesel TPP;-0.008493;-51.173438;4.6024602;22.7782776;13.6903689;2.44944492;7.67596752;5.06270622;2.05940592;5.2265226;3.64296426;0.24962496;0.67086708;0.46024602;6.44344E-10;0.67086708;0.33543354;399.009897;1100.830472;749.9201845
PALMEIRAS DE GOIÁS;Diesel TPP;-16.807840;-49.937062;4.53682152;22.45342176;13.49512164;2.414511792;7.566495552;4.990503672;2.030035392;5.15198376;3.591009576;0.246064896;0.661299408;0.453682152;6.35155E-10;0.661299408;0.330649704;393.3193572;1085.130812;739.2250848
TERMOMANAUS;Diesel TPP;-7.846155;-34.902560;3.6863613;18.2443644;10.96536285;1.96189398;6.14810088;4.05499743;1.64949048;4.1862069;2.91784869;0.19993824;0.53733402;0.36863613;5.16091E-10;0.53733402;0.26866701;319.5887805;881.7151423;600.6519614
GOIÂNIA II;Diesel TPP;-16.830395;-49.282308;3.61788;17.90544;10.76166;1.925448;6.033888;3.979668;1.618848;4.10844;2.863644;0.196224;0.527352;0.361788;5.06503E-10;0.527352;0.263676;313.6518;865.335576;589.493688
PETROLINA;Diesel TPP;-9.391843;-40.487816;3.5196804;17.4194352;10.4695578;1.87318584;5.87011104;3.87164844;1.57490784;3.9969252;2.78591652;0.19089792;0.51303816;0.35196804;4.92755E-10;0.51303816;0.25651908;305.138394;841.8478961;573.493145
ELECTRON (TG);Diesel TPP;-3.938009;-60.815127;3.10104;15.34752;9.22428;1.650384;5.171904;3.411144;1.387584;3.52152;2.454552;0.168192;0.452016;0.310104;4.34146E-10;0.452016;0.226008;268.8444;741.716208;505.280304
FLORES;Diesel TPP;-3.108356;-60.062581;2.5725711;12.7320468;7.65230895;1.36913106;4.29052536;2.82982821;1.15111656;2.9213943;2.03625543;0.13952928;0.37498494;0.25725711;3.6016E-10;0.37498494;0.18749247;223.0288335;615.3154042;419.1721189
PAU FERRO I;Diesel TPP;-7.837312;-34.903933;2.43121536;12.03245568;7.23183552;1.293901056;4.054772736;2.674336896;1.087865856;2.76087168;1.924368768;0.131862528;0.354380544;0.243121536;3.4037E-10;0.354380544;0.177190272;210.7740096;581.5055071;396.1397583
SENADOR ARNON AFONSO FARIAS DE MELLO (FLORESTA);Diesel TPP;2.858820;-60.682830;2.220525534;10.98971959;6.605122563;1.181771216;3.703384958;2.442578087;0.993591086;2.521613742;1.757602414;0.120435283;0.323669824;0.222052553;3.10874E-10;0.323669824;0.161834912;192.508273;531.1120717;361.8101723
POTIGUAR III;Diesel TPP;-5.853701;-35.347469;1.7159088;8.4922944;5.1041016;0.91321248;2.86178688;1.88749968;0.76779648;1.9485744;1.35818544;0.09306624;0.25011552;0.17159088;2.40227E-10;0.25011552;0.12505776;148.760568;410.4163018;279.5884349
XAVANTES ARUANÃ;Diesel TPP;-16.700689;-49.253174;1.384510992;6.852156096;4.118333544;0.736841443;2.309082739;1.522962091;0.619510003;1.572241296;1.09587565;0.075092122;0.201810077;0.138451099;1.93832E-10;0.201810077;0.100905038;120.0300631;331.151563;225.5908131
POTIGUAR;Diesel TPP;-5.857031;-35.362361;1.37272704;6.79383552;4.08328128;0.730569984;2.289429504;1.509999744;0.614237184;1.55885952;1.086548352;0.074452992;0.200092416;0.137272704;1.92182E-10;0.200092416;0.100046208;119.0084544;328.3330414;223.6707479
MAUÁ PARTE III BLOCO IRANDUBA;Diesel TPP;-3.123320;-60.249414;1.2921;6.3948;3.84345;0.68766;2.15496;1.42131;0.57816;1.4673;1.02273;0.07008;0.18834;0.12921;1.80894E-10;0.18834;0.09417;112.0185;309.04842;210.53346
RIO ACRE;Diesel TPP;-9.942879;-67.843285;1.175736058;5.818897102;3.49731658;0.625730716;1.960888612;1.293309664;0.526092067;1.335157897;0.930624982;0.063768735;0.171378476;0.117573606;1.64603E-10;0.171378476;0.085689238;101.9303379;281.2161374;191.5732377
DAIA;Diesel TPP;-16.353937;-48.945165;1.14841848;5.68369824;3.41605836;0.611192208;1.915328448;1.263260328;0.513868608;1.30413624;0.909002424;0.062287104;0.167396592;0.114841848;1.60779E-10;0.167396592;0.083698296;99.5620428;274.6822357;187.1221392
BELO JARDIM;Diesel TPP;-9.934425;-67.811871;1.132887438;5.606832744;3.369860091;0.602926535;1.889425829;1.246176182;0.506919125;1.286499294;0.896709209;0.061444742;0.165132745;0.113288744;1.58604E-10;0.165132745;0.082566373;98.21558043;270.9674737;184.5915271
RIO MADEIRA;Diesel TPP;-8.794378;-63.881171;1.122783216;5.556825408;3.339804312;0.597549034;1.872574042;1.235061538;0.502397914;1.275025008;0.888711461;0.060896717;0.163659926;0.112278322;1.5719E-10;0.163659926;0.081829963;97.33959576;268.550715;182.9451554
MAUÁ PARTE II BLOCO DISTRITO;Diesel TPP;-3.055976;-60.075594;1.03368;5.11584;3.07476;0.550128;1.723968;1.137048;0.462528;1.17384;0.818184;0.056064;0.150672;0.103368;1.44715E-10;0.150672;0.075336;89.6148;247.238736;168.426768
SÃO JOSÉ;Diesel TPP;-3.118640;-60.044729;0.8993016;4.4507808;2.6750412;0.47861136;1.49985216;0.98923176;0.40239936;1.0212408;0.71182008;0.04877568;0.13108464;0.08993016;1.25902E-10;0.13108464;0.06554232;77.964876;215.0977003;146.5312882
BAHIA I - CAMAÇARI;Diesel TPP;-12.724634;-38.298763;0.8217756;4.0670928;2.4444342;0.43735176;1.37055456;0.90395316;0.36770976;0.9332028;0.65045628;0.04457088;0.11978424;0.08217756;1.15049E-10;0.11978424;0.05989212;71.243766;196.5547951;133.8992806
RIO BRANCO II;Diesel TPP;-9.956067;-67.833157;0.8217756;4.0670928;2.4444342;0.43735176;1.37055456;0.90395316;0.36770976;0.9332028;0.65045628;0.04457088;0.11978424;0.08217756;1.15049E-10;0.11978424;0.05989212;71.243766;196.5547951;133.8992806
CRUZEIRO DO SUL;Diesel TPP;-7.626941;-72.663352;0.625645157;3.096413318;1.861029238;0.332970473;1.043448872;0.688209672;0.279949697;0.710478398;0.495214048;0.033933297;0.091195735;0.062564516;8.75903E-11;0.091195735;0.045597867;54.24025385;149.6437174;101.9419856
VILHENA;Diesel TPP;-12.728126;-60.123216;0.6137475;3.03753;1.82563875;0.3266385;1.023606;0.67512225;0.274626;0.6969675;0.48579675;0.033288;0.0894615;0.06137475;8.59247E-11;0.0894615;0.04473075;53.2087875;146.7979995;100.0033935
MANACAPURU;Diesel TPP;-3.290058;-60.618917;0.612248664;3.030112032;1.821180348;0.325840814;1.021106246;0.67347353;0.273955334;0.695265432;0.484610383;0.033206707;0.089243026;0.061224866;8.57148E-11;0.089243026;0.044621513;53.07884604;146.4395033;99.75917469
PARINTINS;Diesel TPP;-2.635442;-56.750101;0.594366;2.941608;1.767987;0.3163236;0.9912816;0.6538026;0.2659536;0.674958;0.4704558;0.0322368;0.0866364;0.0594366;8.32112E-11;0.0866364;0.0433182;51.52851;142.1622732;96.8453916
COARI;Diesel TPP;-4.103067;-63.132625;0.57524292;2.84696496;1.71110394;0.306146232;0.959388192;0.632767212;0.257396832;0.65324196;0.455319396;0.031199616;0.083848968;0.057524292;8.0534E-11;0.083848968;0.041924484;49.8706362;137.5883566;93.72949639
SERRA DO NAVIO;Diesel TPP;0.922967;-51.999279;0.5581872;2.7625536;1.6603704;0.29706912;0.93094272;0.61400592;0.24976512;0.6338736;0.44181936;0.03027456;0.08136288;0.05581872;7.81462E-11;0.08136288;0.04068144;48.391992;133.5089174;90.95045472
TABATINGA;Diesel TPP;-9.228587;-61.888935;0.545214516;2.698349808;1.621782162;0.290165014;0.909306922;0.599735968;0.243960394;0.619141908;0.431551151;0.029570957;0.079471946;0.054521452;7.633E-11;0.079471946;0.039735973;47.26732626;130.4060713;88.83669878
ITACOATIARA;Diesel TPP;-3.122047;-58.440624;0.545059464;2.697582432;1.621320948;0.290082494;0.909048326;0.59956541;0.243891014;0.618965832;0.431428423;0.029562547;0.079449346;0.054505946;7.63083E-11;0.079449346;0.039724673;47.25388404;130.3689855;88.81143477
NOVA BURITIS;Diesel TPP;-10.221932;-63.838957;0.488258748;2.416467024;1.452362886;0.259852961;0.814316285;0.537084623;0.218475101;0.554463324;0.386469212;0.02648183;0.071169919;0.048825875;6.83562E-11;0.071169919;0.03558496;42.32955078;116.7832169;79.55638386
RIO BRANCO I;Diesel TPP;-9.988190;-67.816849;0.480842094;2.379760872;1.430301483;0.255905792;0.801946814;0.528926303;0.215156462;0.546041022;0.380598742;0.026079571;0.070088848;0.048084209;6.73179E-11;0.070088848;0.035044424;41.68656459;115.009279;78.3479218
TEFÉ;Diesel TPP;-3.360214;-64.719116;0.44564529;2.20556652;1.325605905;0.237173934;0.743245704;0.490209819;0.199407384;0.50607177;0.352739577;0.024170592;0.064958466;0.044564529;6.23903E-11;0.064958466;0.032479233;38.63518065;106.5908001;72.61299035
CIDADE NOVA;Diesel TPP;-3.079559;-60.081807;0.4031352;1.9951776;1.1991564;0.21454992;0.67234752;0.44344872;0.18038592;0.4577976;0.31909176;0.02186496;0.05876208;0.04031352;5.64389E-11;0.05876208;0.02938104;34.949772;96.42310704;65.68643952
CAUCAIA;Diesel TPP;-3.729635;-38.647407;0.38142792;1.88774496;1.13458644;0.202997232;0.636144192;0.419570712;0.170672832;0.43314696;0.301909896;0.020687616;0.055597968;0.038142792;5.33999E-11;0.055597968;0.027798984;33.0678612;91.23109358;62.14947739
IGUATU;Diesel TPP;-6.365816;-39.322222;0.38142792;1.88774496;1.13458644;0.202997232;0.636144192;0.419570712;0.170672832;0.43314696;0.301909896;0.020687616;0.055597968;0.038142792;5.33999E-11;0.055597968;0.027798984;33.0678612;91.23109358;62.14947739
JUAZEIRO DO NORTE;Diesel TPP;-7.238327;-39.306693;0.38142792;1.88774496;1.13458644;0.202997232;0.636144192;0.419570712;0.170672832;0.43314696;0.301909896;0.020687616;0.055597968;0.038142792;5.33999E-11;0.055597968;0.027798984;33.0678612;91.23109358;62.14947739
ENGUIA PECÉM;Diesel TPP;-3.612023;-38.966827;0.38142792;1.88774496;1.13458644;0.202997232;0.636144192;0.419570712;0.170672832;0.43314696;0.301909896;0.020687616;0.055597968;0.038142792;5.33999E-11;0.055597968;0.027798984;33.0678612;91.23109358;62.14947739
MACHADINHO DO OESTE;Diesel TPP;-9.429710;-61.906695;0.344396334;1.704469992;1.024433163;0.183288896;0.574383038;0.378835967;0.154102766;0.391094142;0.272598454;0.018679123;0.050200144;0.034439633;4.82155E-11;0.050200144;0.025100072;29.85741099;82.37376587;56.11558843
ALTOS;Diesel TPP;-5.045332;-42.467325;0.33904704;1.67799552;1.00852128;0.180441984;0.565461504;0.372951744;0.151709184;0.38501952;0.268364352;0.018388992;0.049420416;0.033904704;4.74666E-11;0.049420416;0.024710208;29.3936544;81.09430541;55.2439799
CAMPO MAIOR;Diesel TPP;-4.825288;-42.186023;0.33904704;1.67799552;1.00852128;0.180441984;0.565461504;0.372951744;0.151709184;0.38501952;0.268364352;0.018388992;0.049420416;0.033904704;4.74666E-11;0.049420416;0.024710208;29.3936544;81.09430541;55.2439799
CRATO;Diesel TPP;-7.240891;-39.420606;0.33904704;1.67799552;1.00852128;0.180441984;0.565461504;0.372951744;0.151709184;0.38501952;0.268364352;0.018388992;0.049420416;0.033904704;4.74666E-11;0.049420416;0.024710208;29.3936544;81.09430541;55.2439799
MARAMBAIA;Diesel TPP;-5.158406;-42.757533;0.33904704;1.67799552;1.00852128;0.180441984;0.565461504;0.372951744;0.151709184;0.38501952;0.268364352;0.018388992;0.049420416;0.033904704;4.74666E-11;0.049420416;0.024710208;29.3936544;81.09430541;55.2439799
NAZÁRIA;Diesel TPP;-5.066078;-42.791179;0.33904704;1.67799552;1.00852128;0.180441984;0.565461504;0.372951744;0.151709184;0.38501952;0.268364352;0.018388992;0.049420416;0.033904704;4.74666E-11;0.049420416;0.024710208;29.3936544;81.09430541;55.2439799
PIMENTA BUENO;Diesel TPP;-11.697414;-61.177868;0.335946;1.662648;0.999297;0.1787916;0.5602896;0.3695406;0.1503216;0.381498;0.2659098;0.0182208;0.0489684;0.0335946;4.70324E-11;0.0489684;0.0244842;29.12481;80.3525892;54.7386996
HUMAITÁ;Diesel TPP;-7.519660;-63.041588;0.33413706;1.65369528;0.99391617;0.177828876;0.557272656;0.367550766;0.149512176;0.37944378;0.264477978;0.018122688;0.048704724;0.033413706;4.67792E-11;0.048704724;0.024352362;28.9679841;79.91992141;54.44395276
BRUMADO;Diesel TPP;-27.101462;-48.865029;0.33323259;1.64921892;0.991225755;0.177347514;0.555764184;0.366555849;0.149107464;0.37841667;0.263762067;0.018073632;0.048572886;0.033323259;4.66526E-11;0.048572886;0.024286443;28.88957115;79.70358752;54.29657933
ITAÚ MOOCA;Diesel TPP;-23.557717;-46.614142;0.33013155;1.6338714;0.982001475;0.17569713;0.55059228;0.363144705;0.14771988;0.37489515;0.261307515;0.01790544;0.04812087;0.033013155;4.62184E-11;0.04812087;0.024060435;28.62072675;78.96187131;53.79129903
MAUÉS;Diesel TPP;-3.395058;-57.706983;0.30157614;1.49254632;0.89706123;0.160499844;0.502967664;0.331733754;0.134942544;0.34246782;0.238705182;0.016356672;0.043958556;0.030157614;4.22207E-11;0.043958556;0.021979278;26.1451179;72.13190123;49.13850956
ARACATI;Diesel TPP;-4.566349;-37.763770;0.29666616;1.46824608;0.88245612;0.157886736;0.494778816;0.326332776;0.132745536;0.33689208;0.234818808;0.016090368;0.043242864;0.029666616;4.15333E-11;0.043242864;0.021621432;25.7194476;70.95751723;48.33848242
BATURITÉ;Diesel TPP;-4.328580;-38.879105;0.29666616;1.46824608;0.88245612;0.157886736;0.494778816;0.326332776;0.132745536;0.33689208;0.234818808;0.016090368;0.043242864;0.029666616;4.15333E-11;0.043242864;0.021621432;25.7194476;70.95751723;48.33848242
CATERPILLAR;Diesel TPP;-22.743927;-47.667837;0.29666616;1.46824608;0.88245612;0.157886736;0.494778816;0.326332776;0.132745536;0.33689208;0.234818808;0.016090368;0.043242864;0.029666616;4.15333E-11;0.043242864;0.021621432;25.7194476;70.95751723;48.33848242
BOCA DO ACRE;Diesel TPP;-8.779490;-67.361449;0.2920146;1.4452248;0.8686197;0.15541116;0.48702096;0.32121606;0.13066416;0.3316098;0.23113698;0.01583808;0.04256484;0.02920146;4.0882E-11;0.04256484;0.02128242;25.316181;69.84494292;47.58056196
CARACARAÍ;Diesel TPP;1.825310;-61.140633;0.283124952;1.401228576;0.842176764;0.150680059;0.472194835;0.311437447;0.126686419;0.321514776;0.224100598;0.01535593;0.041269061;0.028312495;3.96375E-11;0.041269061;0.02063453;24.54549372;67.71868979;46.13209176
COLORADO DO OESTE;Diesel TPP;-13.127585;-60.532022;0.282866532;1.399949616;0.841408074;0.150542527;0.471763843;0.311153185;0.126570787;0.321221316;0.223896052;0.015341914;0.041231393;0.028286653;3.96013E-11;0.041231393;0.020615696;24.52309002;67.65688011;46.08998506
BRASÍLIA;Diesel TPP;-15.846971;-48.134780;0.25842;1.27896;0.76869;0.137532;0.430992;0.284262;0.115632;0.29346;0.204546;0.014016;0.037668;0.025842;3.61788E-11;0.037668;0.018834;22.4037;61.809684;42.106692
ALCOA BENEFICIAMENTO;Diesel TPP;-2.154843;-56.082131;0.253975176;1.256961888;0.755468532;0.13516645;0.423578938;0.279372694;0.11364313;0.288412488;0.201027809;0.013774925;0.03702011;0.025397518;3.55565E-11;0.03702011;0.018510055;22.01835636;60.74655744;41.3824569
AEROPORTO INTERNACIONAL DE SÃO PAULO/GUARULHOS-CENTRAL ELÉTRICA DE EMERGÊNCIA CEE;Diesel TPP;-23.467761;-46.542861;0.2480832;1.2278016;0.7379424;0.13203072;0.41375232;0.27289152;0.11100672;0.2817216;0.19636416;0.01345536;0.03616128;0.02480832;3.47316E-11;0.03616128;0.01808064;21.507552;59.33729664;40.42242432
VILA RICA;Diesel TPP;-10.020824;-51.115775;0.2390385;1.183038;0.71103825;0.1272171;0.3986676;0.26294235;0.1069596;0.2714505;0.18920505;0.0129648;0.0348429;0.02390385;3.34654E-11;0.0348429;0.01742145;20.7234225;57.1739577;38.9486901
NOVO PROGRESSO;Diesel TPP;-7.087150;-55.410206;0.23580825;1.167051;0.701429625;0.12549795;0.3932802;0.259389075;0.1055142;0.26778225;0.186648225;0.0127896;0.03437205;0.023580825;3.30132E-11;0.03437205;0.017186025;20.44337625;56.40133665;38.42235645
CENTRAL GERADORA DE EMERGÊNCIA - CSAC;Diesel TPP;-8.704117;-63.895762;0.23580825;1.167051;0.701429625;0.12549795;0.3932802;0.259389075;0.1055142;0.26778225;0.186648225;0.0127896;0.03437205;0.023580825;3.30132E-11;0.03437205;0.017186025;20.44337625;56.40133665;38.42235645
BREVES;Diesel TPP;-1.672924;-50.499516;0.224846074;1.112797517;0.668821795;0.119663843;0.374997519;0.247330681;0.100609091;0.255333677;0.177971384;0.012195041;0.032774173;0.022484607;3.14785E-11;0.032774173;0.016387087;19.4930113;53.77936985;36.63619058
LARANJAL DO JARI;Diesel TPP;-0.822257;-52.500278;0.22417935;1.1094978;0.666838575;0.11930901;0.37388556;0.246597285;0.10031076;0.25457655;0.177443655;0.01215888;0.03267699;0.022417935;3.13851E-11;0.03267699;0.016338495;19.43520975;53.61990087;36.52755531
ORIXIMINÁ;Diesel TPP;-1.765886;-55.851664;0.219202181;1.08486503;0.652033606;0.116660144;0.365584654;0.241122399;0.098083688;0.24892451;0.173504099;0.011888932;0.031951504;0.021920218;3.06883E-11;0.031951504;0.015975752;19.00371449;52.42944636;35.71658042
SÃO FRANCISCO DO GUAPORÉ;Diesel TPP;-12.072632;-63.559287;0.217641324;1.077140112;0.647390718;0.11582945;0.362981462;0.239405456;0.09738527;0.247152012;0.172268641;0.011804275;0.03172399;0.021764132;3.04698E-11;0.03172399;0.015861995;18.86839614;52.05611586;35.462256
APARECIDA PARTE II;Diesel TPP;-3.028549;-59.951998;0.2170728;1.0743264;0.6456996;0.11552688;0.36203328;0.23878008;0.09713088;0.2465064;0.17181864;0.01177344;0.03164112;0.02170728;3.03902E-11;0.03164112;0.01582056;18.819108;51.92013456;35.36962128
OIAPOQUE;Diesel TPP;3.837141;-51.828868;0.2131965;1.055142;0.63416925;0.1134639;0.3555684;0.23451615;0.0953964;0.2421045;0.16875045;0.0115632;0.0310761;0.02131965;2.98475E-11;0.0310761;0.01553805;18.4830525;50.9929893;34.7380209
SAPEZAL;Diesel TPP;-13.561296;-58.807770;0.21009546;1.03979448;0.62494497;0.111813516;0.350396496;0.231105006;0.094008816;0.23858298;0.166295898;0.011395008;0.030624084;0.021009546;2.94134E-11;0.030624084;0.015312042;18.2142081;50.25127309;34.2327406
VISTA ALEGRE DO ABUNÃ;Diesel TPP;-8.807949;-63.903659;0.20828652;1.03084176;0.61956414;0.110850792;0.347379552;0.229115172;0.093199392;0.23652876;0.164864076;0.011296896;0.030360408;0.020828652;2.91601E-11;0.030360408;0.015180204;18.0573822;49.8186053;33.93799375
MUNGUBA;Diesel TPP;-1.501644;-52.590907;0.206736;1.023168;0.614952;0.1100256;0.3447936;0.2274096;0.0925056;0.234768;0.1636368;0.0112128;0.0301344;0.0206736;2.8943E-11;0.0301344;0.0150672;17.92296;49.4477472;33.6853536
ALTEROSA;Diesel TPP;-19.828745;-44.602319;0.206736;1.023168;0.614952;0.1100256;0.3447936;0.2274096;0.0925056;0.234768;0.1636368;0.0112128;0.0301344;0.0206736;2.8943E-11;0.0301344;0.0150672;17.92296;49.4477472;33.6853536
HERMASA;Diesel TPP;-3.141802;-58.434466;0.19614078;0.97073064;0.58343571;0.104386788;0.327122928;0.215754858;0.087764688;0.22273614;0.155250414;0.010638144;0.028590012;0.019614078;2.74597E-11;0.028590012;0.014295006;17.0044083;46.91355016;31.95897923
SÃO JOSÉ DO RIO CLARO;Diesel TPP;-13.448112;-56.735056;0.19536552;0.96689376;0.58112964;0.103974192;0.325829952;0.214902072;0.087417792;0.22185576;0.154636776;0.010596096;0.028477008;0.019536552;2.73512E-11;0.028477008;0.014238504;16.9371972;46.7281211;31.83265915
CALÇADOS AZALÉIA;Diesel TPP;-15.347641;-40.019111;0.193815;0.95922;0.5765175;0.103149;0.323244;0.2131965;0.086724;0.220095;0.1534095;0.010512;0.028251;0.0193815;2.71341E-11;0.028251;0.0141255;16.802775;46.357263;31.580019
SANTANA DO ARAGUAIA;Diesel TPP;-9.339164;-50.330631;0.189804322;0.939370541;0.564587431;0.101014503;0.316555004;0.208784754;0.084929391;0.215540501;0.150234946;0.010294472;0.027666393;0.018980432;2.65726E-11;0.027666393;0.013833196;16.45506958;45.3979767;30.92652314
ITAÚSA;Diesel TPP;-23.525113;-46.727822;0.1886466;0.9336408;0.5611437;0.10039836;0.31462416;0.20751126;0.08441136;0.2142258;0.14931858;0.01023168;0.02749764;0.01886466;2.64105E-11;0.02749764;0.01374882;16.354701;45.12106932;30.73788516
CUJUBIM;Diesel TPP;-9.366478;-62.594616;0.172676244;0.854601072;0.513638658;0.091898882;0.287988854;0.189943868;0.077265302;0.196089972;0.136677637;0.009365491;0.025169758;0.017267624;2.41747E-11;0.025169758;0.012584879;14.97015234;41.30123085;28.13569159
MONTE ALEGRE;Diesel TPP;-1.987823;-54.085127;0.172262772;0.852554736;0.512408754;0.091678831;0.287299267;0.189489049;0.077080291;0.195620436;0.136350364;0.009343066;0.025109489;0.017226277;2.41168E-11;0.025109489;0.012554744;14.93430642;41.20233535;28.06832089
ITAUTINGA;Diesel TPP;-3.117517;-60.040974;0.16952352;0.83899776;0.50426064;0.090220992;0.282730752;0.186475872;0.075854592;0.19250976;0.134182176;0.009194496;0.024710208;0.016952352;2.37333E-11;0.024710208;0.012355104;14.6968272;40.5471527;27.62198995
3M SUMARÉ;Diesel TPP;-22.809053;-47.273350;0.1653888;0.8185344;0.4919616;0.08802048;0.27583488;0.18192768;0.07400448;0.1878144;0.13090944;0.00897024;0.02410752;0.01653888;2.31544E-11;0.02410752;0.01205376;14.338368;39.55819776;26.94828288
BORBA;Diesel TPP;-4.406794;-59.599754;0.16513038;0.81725544;0.49119291;0.087882948;0.275403888;0.181643418;0.073888848;0.18752094;0.130704894;0.008956224;0.024069852;0.016513038;2.31183E-11;0.024069852;0.012034926;14.3159643;39.49638808;26.90617619
EIRUNEPÉ;Diesel TPP;-6.850469;-70.242271;0.16357986;0.80958168;0.48658077;0.087057756;0.272817936;0.179937846;0.073195056;0.18576018;0.129477618;0.008872128;0.023843844;0.016357986;2.29012E-11;0.023843844;0.011921922;14.1815421;39.12552997;26.65353604
ALVORADA D´OESTE;Diesel TPP;-11.358026;-62.298663;0.163088862;0.807151656;0.485120259;0.086796445;0.271999051;0.179397748;0.072975355;0.185202606;0.129088981;0.008845498;0.023772275;0.016308886;2.28324E-11;0.023772275;0.011886137;14.13897507;39.00809157;26.57353332
LÁBREA;Diesel TPP;-7.266740;-64.782003;0.1628046;0.8057448;0.4842747;0.08664516;0.27152496;0.17908506;0.07284816;0.1848798;0.12886398;0.00883008;0.02373084;0.01628046;2.27926E-11;0.02373084;0.01186542;14.114331;38.94010092;26.52721596
AUTAZES;Diesel TPP;-3.584836;-59.116852;0.156137364;0.772747632;0.464442498;0.083096834;0.260405366;0.1717511;0.069864854;0.177308532;0.123586693;0.008468467;0.022759006;0.015613736;2.18592E-11;0.022759006;0.011379503;13.53631554;37.34541107;25.44086331
CASTANHO;Diesel TPP;-3.814581;-60.351126;0.155052;0.767376;0.461214;0.0825192;0.2585952;0.1705572;0.0693792;0.176076;0.1227276;0.0084096;0.0226008;0.0155052;2.17073E-11;0.0226008;0.0113004;13.44222;37.0858104;25.2640152
SÃO GABRIEL DA CACHOEIRA;Diesel TPP;-0.114796;-67.087488;0.1511757;0.7481916;0.44968365;0.08045622;0.25213032;0.16629327;0.06764472;0.1716741;0.11965941;0.00819936;0.02203578;0.01511757;2.11646E-11;0.02203578;0.01101789;13.1061645;36.15866514;24.63241482
ALCOA PORTO;Diesel TPP;-27.812284;-50.304971;0.145852248;0.721845024;0.433848636;0.077623061;0.243251885;0.160437473;0.065262701;0.165628824;0.115445762;0.00791063;0.021259819;0.014585225;2.04193E-11;0.021259819;0.01062991;12.64464828;34.88538565;23.76501696
MONTE DOURADO;Diesel TPP;-1.527495;-52.585298;0.14148495;0.7002306;0.420857775;0.07529877;0.23596812;0.155633445;0.06330852;0.16066935;0.111988935;0.00767376;0.02062323;0.014148495;1.98079E-11;0.02062323;0.010311615;12.26602575;33.84080199;23.05341387
TIVIT BARRA (ANTIGA OPTIGLOBE RIO);Diesel TPP;-23.041175;-43.554073;0.141469445;0.700153862;0.420811654;0.075290518;0.23594226;0.155616389;0.063301582;0.160651742;0.111976662;0.007672919;0.02062097;0.014146944;1.98057E-11;0.02062097;0.010310485;12.26468153;33.83709341;23.05088747
TIVIT TRANSAMÉRICA (ANTIGA OPTIGLOBE SÃO PAULO);Diesel TPP;-23.651232;-46.721660;0.141469445;0.700153862;0.420811654;0.075290518;0.23594226;0.155616389;0.063301582;0.160651742;0.111976662;0.007672919;0.02062097;0.014146944;1.98057E-11;0.02062097;0.010310485;12.26468153;33.83709341;23.05088747
EDIFÍCIO ROCHAVERÁ;Diesel TPP;-23.568234;-46.669525;0.14135574;0.69959112;0.42047343;0.075230004;0.235752624;0.155491314;0.063250704;0.16052262;0.111886662;0.007666752;0.020604396;0.014135574;1.97898E-11;0.020604396;0.010302198;12.2548239;33.80989715;23.03236052
CARAUARI;Diesel TPP;-4.867313;-66.898690;0.140993952;0.697800576;0.419397264;0.075037459;0.235149235;0.155093347;0.063088819;0.160111776;0.111600298;0.00764713;0.020551661;0.014099395;1.97392E-11;0.020551661;0.01027583;12.22345872;33.72336359;22.97341116
CHUPINGUAIA;Diesel TPP;-12.548982;-60.911644;0.13980522;0.69191736;0.41586129;0.074404812;0.233166672;0.153785742;0.062556912;0.15876186;0.110659386;0.007582656;0.020378388;0.013980522;1.95727E-11;0.020378388;0.010189194;12.1204017;33.43903904;22.77972037
CODAJÁS;Diesel TPP;-3.840531;-62.059850;0.1343784;0.6650592;0.3997188;0.07151664;0.22411584;0.14781624;0.06012864;0.1525992;0.10636392;0.00728832;0.01958736;0.01343784;1.8813E-11;0.01958736;0.00979368;11.649924;32.14103568;21.89547984
MANICORÉ;Diesel TPP;-5.813654;-61.282751;0.13205262;0.65354856;0.39280059;0.070278852;0.220236912;0.145257882;0.059087952;0.14995806;0.104523006;0.007162176;0.019248348;0.013205262;1.84874E-11;0.019248348;0.009624174;11.4482907;31.58474852;21.51651961
BENJAMIN CONSTANT;Diesel TPP;-4.382773;-70.018284;0.1317942;0.6522696;0.3920319;0.07014132;0.21980592;0.14497362;0.05897232;0.1496646;0.10431846;0.00714816;0.01921068;0.01317942;1.84512E-11;0.01921068;0.00960534;11.425887;31.52293884;21.47441292
APUÍ;Diesel TPP;-7.205666;-59.881458;0.12921;0.63948;0.384345;0.068766;0.215496;0.142131;0.057816;0.14673;0.102273;0.007008;0.018834;0.012921;1.80894E-11;0.018834;0.009417;11.20185;30.904842;21.053346
COSTA MARQUES;Diesel TPP;-12.441442;-64.223649;0.128848212;0.637689456;0.383268834;0.068573455;0.214892611;0.141733033;0.057654115;0.146319156;0.101986636;0.006988378;0.018781265;0.012884821;1.80387E-11;0.018781265;0.009390632;11.17048482;30.81830844;20.99439663
JBS ANDRADINA;Diesel TPP;-20.904327;-51.390530;0.12817632;0.63436416;0.38127024;0.068215872;0.213772032;0.140993952;0.057353472;0.14555616;0.101454816;0.006951936;0.018683328;0.012817632;1.79447E-11;0.018683328;0.009341664;11.1122352;30.65760326;20.88491923
ALBRÁS;Diesel TPP;-1.517284;-48.615369;0.12817632;0.63436416;0.38127024;0.068215872;0.213772032;0.140993952;0.057353472;0.14555616;0.101454816;0.006951936;0.018683328;0.012817632;1.79447E-11;0.018683328;0.009341664;11.1122352;30.65760326;20.88491923
FRANGO SERTANEJO;Diesel TPP;-20.797257;-49.226139;0.127762848;0.632317824;0.380040336;0.067995821;0.213082445;0.140539133;0.057168461;0.145086624;0.101127542;0.00692951;0.018623059;0.012776285;1.78868E-11;0.018623059;0.00931153;11.07638928;30.55870777;20.81754852
TERMOMECÂNICA SÃO PAULO;Diesel TPP;-23.654819;-46.572277;0.127246008;0.629759904;0.378502956;0.067720757;0.212220461;0.139970609;0.056937197;0.144499704;0.10071845;0.006901478;0.018547723;0.012724601;1.78144E-11;0.018547723;0.009273862;11.03158188;30.4350884;20.73333514
CAIMA;Diesel TPP;-4.255558;-55.998945;0.12714264;0.62924832;0.37819548;0.067665744;0.212048064;0.139856904;0.056890944;0.14438232;0.100636632;0.006895872;0.018532656;0.012714264;1.78E-11;0.018532656;0.009266328;11.0226204;30.41036453;20.71649246
NOVA OLINDA DO NORTE;Diesel TPP;-3.583702;-59.123495;0.12688422;0.62796936;0.37742679;0.067528212;0.211617072;0.139572642;0.056775312;0.14408886;0.100432086;0.006881856;0.018494988;0.012688422;1.77638E-11;0.018494988;0.009247494;11.0002167;30.34855484;20.67438577
FEIJÓ;Diesel TPP;-8.165956;-70.363976;0.126274349;0.624951014;0.375612682;0.067203636;0.210599931;0.138901784;0.05650242;0.143396294;0.099949357;0.006848778;0.018406092;0.012627435;1.76784E-11;0.018406092;0.009203046;10.94734397;30.20268399;20.57501398
AGUDOS AMBEV;Diesel TPP;-22.464784;-48.981483;0.1240416;0.6139008;0.3689712;0.06601536;0.20687616;0.13644576;0.05550336;0.1408608;0.09818208;0.00672768;0.01808064;0.01240416;1.73658E-11;0.01808064;0.00904032;10.753776;29.66864832;20.21121216
MARFRIG MINEIROS;Diesel TPP;-16.641489;-49.251801;0.1240416;0.6139008;0.3689712;0.06601536;0.20687616;0.13644576;0.05550336;0.1408608;0.09818208;0.00672768;0.01808064;0.01240416;1.73658E-11;0.01808064;0.00904032;10.753776;29.66864832;20.21121216
ÓBIDOS;Diesel TPP;-1.901346;-55.506479;0.1240416;0.6139008;0.3689712;0.06601536;0.20687616;0.13644576;0.05550336;0.1408608;0.09818208;0.00672768;0.01808064;0.01240416;1.73658E-11;0.01808064;0.00904032;10.753776;29.66864832;20.21121216
RÁDIO E TELEVISÃO RECORD;Diesel TPP;-23.666155;-46.715713;0.12300792;0.60878496;0.36589644;0.065465232;0.205152192;0.135308712;0.055040832;0.13968696;0.097363896;0.006671616;0.017929968;0.012300792;1.72211E-11;0.017929968;0.008964984;10.6641612;29.42140958;20.04278539
TARAUACÁ;Diesel TPP;-8.160583;-70.768790;0.122697816;0.607250208;0.364974012;0.065300194;0.204635002;0.134967598;0.054902074;0.139334808;0.097118441;0.006654797;0.017884766;0.012269782;1.71777E-11;0.017884766;0.008942383;10.63727676;29.34723796;19.99225736
NOVO ARIPUANÃ;Diesel TPP;-5.125476;-60.384666;0.12068214;0.59727432;0.35897823;0.064227444;0.201273264;0.132750354;0.054000144;0.13704582;0.095522982;0.006545472;0.017590956;0.012068214;1.68955E-11;0.017590956;0.008795478;10.4625279;28.86512243;19.66382516
COMODORO;Diesel TPP;-13.664935;-59.777403;0.12013429;0.594562925;0.357348607;0.063935876;0.200359561;0.132147719;0.053755004;0.136423685;0.095089344;0.006515758;0.0175111;0.012013429;1.68188E-11;0.0175111;0.00875555;10.41503206;28.7340859;19.57455898
AMAPÁ GARDEN SHOPPING;Diesel TPP;0.168033;-51.073171;0.1188732;0.5883216;0.3535974;0.06326472;0.19825632;0.13076052;0.05319072;0.1349916;0.09409116;0.00644736;0.01732728;0.01188732;1.66422E-11;0.01732728;0.00866364;10.305702;28.43245464;19.36907832
LATASA SANTA CRUZ;Diesel TPP;-23.000730;-43.446956;0.11577216;0.57297408;0.34437312;0.061614336;0.193084416;0.127349376;0.051803136;0.13147008;0.091636608;0.006279168;0.016875264;0.011577216;1.62081E-11;0.016875264;0.008437632;10.0368576;27.69073843;18.86379802
ITAGUASSU AGRO INDUSTRIAL;Diesel TPP;-10.855831;-37.123670;0.115007237;0.569188358;0.342097798;0.061207241;0.19180868;0.12650796;0.051460865;0.130601438;0.091031152;0.006237681;0.016763767;0.011500724;1.6101E-11;0.016763767;0.008381883;9.970542648;27.50778177;18.73916221
SHOPPING CENTER IGUATEMI PORTO ALEGRE;Diesel TPP;-30.189000;-51.118437;0.11473848;0.56785824;0.34129836;0.061064208;0.191360448;0.126212328;0.051340608;0.13029624;0.090818424;0.006223104;0.016724592;0.011473848;1.60634E-11;0.016724592;0.008362296;9.9472428;27.4434997;18.69537125
FBA;Diesel TPP;-23.376182;-47.894920;0.11473848;0.56785824;0.34129836;0.061064208;0.191360448;0.126212328;0.051340608;0.13029624;0.090818424;0.006223104;0.016724592;0.011473848;1.60634E-11;0.016724592;0.008362296;9.9472428;27.4434997;18.69537125
TUBARÃO;Diesel TPP;-3.863279;-32.427055;0.112981224;0.559161312;0.336071268;0.06012899;0.188429702;0.124279346;0.05055431;0.128300712;0.089427511;0.006127795;0.01646845;0.011298122;1.58174E-11;0.01646845;0.008234225;9.79489764;27.02319384;18.40904574
CERVEJARIA PETRÓPOLIS;Diesel TPP;-22.406336;-42.966538;0.112464384;0.556603392;0.334533888;0.059853926;0.187567718;0.123710822;0.050323046;0.127713792;0.089018419;0.006099763;0.016393114;0.011246438;1.5745E-11;0.016393114;0.008196557;9.75009024;26.89957448;18.32483236
ROVEMA-TRIUNFO;Diesel TPP;-8.809639;-63.696598;0.11215428;0.55506864;0.33361146;0.059688888;0.187050528;0.123369708;0.050184288;0.12736164;0.088772964;0.006082944;0.016347912;0.011215428;1.57016E-11;0.016347912;0.008173956;9.7232058;26.82540286;18.27430433
ANORI;Diesel TPP;-3.746233;-61.657769;0.11189586;0.55378968;0.33284277;0.059551356;0.186619536;0.123085446;0.050068656;0.12706818;0.088568418;0.006068928;0.016310244;0.011189586;1.56654E-11;0.016310244;0.008155122;9.7008021;26.76359317;18.23219764
SOURE;Diesel TPP;-0.393838;-48.610756;0.110355677;0.546167078;0.328261378;0.058731665;0.184050824;0.121391244;0.049379489;0.125319158;0.087349324;0.005985393;0.016085743;0.011035568;1.54498E-11;0.016085743;0.008042871;9.567276048;26.39520746;17.98124175
SISTEMA DE GERAÇÃO DO MUNICÍPIO DE FEIJÓ;Diesel TPP;-8.167023;-70.346755;0.110159278;0.545195069;0.327677173;0.058627141;0.18372327;0.121175205;0.049291609;0.125096129;0.087193869;0.00597474;0.016057115;0.011015928;1.54223E-11;0.016057115;0.008028558;9.550249236;26.3482321;17.94924067
CAMPO NOVO;Diesel TPP;-10.575604; -63.611822;0.108381348;0.536395824;0.322388586;0.057680921;0.180758045;0.119219483;0.048496061;0.123077124;0.085786592;0.00587831;0.015797959;0.010838135;1.51734E-11;0.015797959;0.00789898;9.39611178;25.92298147;17.65954662
PORTEL;Diesel TPP;-1.955723;-50.811794;0.108226296;0.535628448;0.321927372;0.057598402;0.18049945;0.119048926;0.048426682;0.122901048;0.085663865;0.005869901;0.015775358;0.01082263;1.51517E-11;0.015775358;0.007887679;9.38266956;25.88589566;17.63428261
ALENQUER;Diesel TPP;-1.943150;-54.743077;0.107218458;0.530640504;0.318929481;0.057062027;0.178818581;0.117940304;0.047975717;0.121756554;0.084866135;0.005815238;0.015628453;0.010721846;1.50106E-11;0.015628453;0.007814227;9.29529513;25.64483789;17.47006651
ALMEIRIM;Diesel TPP;-1.524171;-52.581201;0.106799818;0.528568589;0.317684203;0.056839225;0.178120374;0.117479799;0.047788393;0.121281149;0.084534771;0.005792532;0.015567431;0.010679982;1.4952E-11;0.015567431;0.007783716;9.259001136;25.5447062;17.40185367
NOVO AIRÃO;Diesel TPP;-2.639329;-60.947908;0.105487044;0.522071472;0.313779258;0.056140562;0.175930934;0.116035748;0.047200982;0.119790372;0.083495677;0.005721331;0.015376078;0.010548704;1.47682E-11;0.015376078;0.007688039;9.14519034;25.23071301;17.18795167
SALVATERRA;Diesel TPP;-0.766388;-48.678853;0.104892678;0.519129864;0.312011271;0.055824239;0.174939653;0.115381946;0.046935029;0.119115414;0.083025221;0.005689094;0.015289441;0.010489268;1.4685E-11;0.015289441;0.007644721;9.09366183;25.08855074;17.09110628
NOVO DATA CENTER - BM&FBOVESPA;Diesel TPP;-23.435113;-46.917703;0.104649763;0.517927642;0.311288702;0.055694959;0.17453452;0.11511474;0.046826335;0.118839562;0.082832948;0.005675919;0.015254033;0.010464976;1.4651E-11;0.015254033;0.007627017;9.072602352;25.03044963;17.05152599
SHOPPING PORTO VELHO;Diesel TPP;-8.731605;-63.904002;0.10375563;0.51350244;0.308629035;0.055219098;0.173043288;0.114131193;0.046426248;0.11782419;0.082125219;0.005627424;0.015123702;0.010375563;1.45258E-11;0.015123702;0.007561851;8.99508555;24.81658813;16.90583684
OESP;Diesel TPP;-23.550923;-46.633751;0.103368;0.511584;0.307476;0.0550128;0.1723968;0.1137048;0.0462528;0.117384;0.0818184;0.0056064;0.0150672;0.0103368;1.44715E-11;0.0150672;0.0075336;8.96148;24.7238736;16.8426768
CONDOMÍNIO E-TOWER SÃO PAULO;Diesel TPP;-23.596430;-46.690444;0.103368;0.511584;0.307476;0.0550128;0.1723968;0.1137048;0.0462528;0.117384;0.0818184;0.0056064;0.0150672;0.0103368;1.44715E-11;0.0150672;0.0075336;8.96148;24.7238736;16.8426768
CONDOMÍNIO SP MARKET CENTER;Diesel TPP;-23.568778;-46.701458;0.103368;0.511584;0.307476;0.0550128;0.1723968;0.1137048;0.0462528;0.117384;0.0818184;0.0056064;0.0150672;0.0103368;1.44715E-11;0.0150672;0.0075336;8.96148;24.7238736;16.8426768
CHRIS CINTOS;Diesel TPP;-23.610533;-46.664219;0.103368;0.511584;0.307476;0.0550128;0.1723968;0.1137048;0.0462528;0.117384;0.0818184;0.0056064;0.0150672;0.0103368;1.44715E-11;0.0150672;0.0075336;8.96148;24.7238736;16.8426768
AEROPORTO INTERNACIONAL DE VIRACOPOS - CAMPINAS;Diesel TPP;-22.911882;-47.027533;0.09987933;0.49431804;0.297098685;0.053156118;0.166578408;0.109867263;0.044691768;0.11342229;0.079057029;0.005417184;0.014558682;0.009987933;1.39831E-11;0.014558682;0.007279341;8.65903005;23.88944287;16.27423646
3M ITAPETININGA;Diesel TPP;-23.593264;-48.027241;0.09923328;0.49112064;0.29517696;0.052812288;0.165500928;0.109156608;0.044402688;0.11268864;0.078545664;0.005382144;0.014464512;0.009923328;1.38927E-11;0.014464512;0.007232256;8.6030208;23.73491866;16.16896973
TECUMSEH BAIRRO VILA IZABEL;Diesel TPP;-22.031882;-47.879572;0.09923328;0.49112064;0.29517696;0.052812288;0.165500928;0.109156608;0.044402688;0.11268864;0.078545664;0.005382144;0.014464512;0.009923328;1.38927E-11;0.014464512;0.007232256;8.6030208;23.73491866;16.16896973
TECUMSEH BAIRRO JARDIM JOCKEY CLUBE;Diesel TPP;-22.027109;-47.877855;0.09923328;0.49112064;0.29517696;0.052812288;0.165500928;0.109156608;0.044402688;0.11268864;0.078545664;0.005382144;0.014464512;0.009923328;1.38927E-11;0.014464512;0.007232256;8.6030208;23.73491866;16.16896973
JURUENA;Diesel TPP;-10.320624;-58.499873;0.098892682;0.489434971;0.294163827;0.052631021;0.164932881;0.108781951;0.044250285;0.11230186;0.078276072;0.005363671;0.014414866;0.009889268;1.3845E-11;0.014414866;0.007207433;8.573492723;23.65345349;16.11347311
TAPAUÁ;Diesel TPP;-5.631274;-63.184219;0.09768276;0.48344688;0.29056482;0.051987096;0.162914976;0.107451036;0.043708896;0.11092788;0.077318388;0.005298048;0.014238504;0.009768276;1.36756E-11;0.014238504;0.007119252;8.4685986;23.36406055;15.91632958
MERCK;Diesel TPP;-22.926712;-47.112203;0.0969075;0.47961;0.28825875;0.0515745;0.161622;0.10659825;0.043362;0.1100475;0.07670475;0.005256;0.0141255;0.00969075;1.35671E-11;0.0141255;0.00706275;8.4013875;23.1786315;15.7900095
DORI ALIMENTOS;Diesel TPP;-22.249909;-49.933835;0.0969075;0.47961;0.28825875;0.0515745;0.161622;0.10659825;0.043362;0.1100475;0.07670475;0.005256;0.0141255;0.00969075;1.35671E-11;0.0141255;0.00706275;8.4013875;23.1786315;15.7900095
BEBIDAS IPIRANGA;Diesel TPP;-21.247160;-47.856830;0.0969075;0.47961;0.28825875;0.0515745;0.161622;0.10659825;0.043362;0.1100475;0.07670475;0.005256;0.0141255;0.00969075;1.35671E-11;0.0141255;0.00706275;8.4013875;23.1786315;15.7900095
URUCARÁ;Diesel TPP;-2.531539;-57.745604;0.0969075;0.47961;0.28825875;0.0515745;0.161622;0.10659825;0.043362;0.1100475;0.07670475;0.005256;0.0141255;0.00969075;1.35671E-11;0.0141255;0.00706275;8.4013875;23.1786315;15.7900095
JACI-PARANÁ;Diesel TPP;-8.720915;-63.859885;0.0956154;0.4732152;0.2844153;0.05088684;0.15946704;0.10517694;0.04278384;0.1085802;0.07568202;0.00518592;0.01393716;0.00956154;1.33862E-11;0.01393716;0.00696858;8.289369;22.86958308;15.57947604
ABATEDOURO SÃO SALVADOR;Diesel TPP;-16.020508;-49.789613;0.095305296;0.471680448;0.283492872;0.050721802;0.15894985;0.104835826;0.042645082;0.108228048;0.075436565;0.005169101;0.013891958;0.00953053;1.33427E-11;0.013891958;0.006945979;8.26248456;22.79541146;15.52894801
CONIEXPRESS;Diesel TPP;-16.409047;-49.216906;0.095305296;0.471680448;0.283492872;0.050721802;0.15894985;0.104835826;0.042645082;0.108228048;0.075436565;0.005169101;0.013891958;0.00953053;1.33427E-11;0.013891958;0.006945979;8.26248456;22.79541146;15.52894801
TERRA SANTA;Diesel TPP;-2.103531;-56.482575;0.09429229;0.466666925;0.280479607;0.050182676;0.157260361;0.103721519;0.042191804;0.107077685;0.074634744;0.005114158;0.0137443;0.009429229;1.32009E-11;0.0137443;0.00687215;8.174662056;22.5531175;15.36388978
QUERÊNCIA DO NORTE;Diesel TPP;-12.578725;-52.211317;0.093703092;0.463750896;0.278726994;0.049869103;0.156277699;0.103073401;0.041928163;0.106408596;0.07416838;0.005082202;0.013658417;0.009370309;1.31184E-11;0.013658417;0.006829208;8.12358162;22.41219142;15.26788652
BUETTNER;Diesel TPP;-27.100470;-48.905775;0.0930312;0.4604256;0.2767284;0.04951152;0.15515712;0.10233432;0.04162752;0.1056456;0.07363656;0.00504576;0.01356048;0.00930312;1.30244E-11;0.01356048;0.00678024;8.065332;22.25148624;15.15840912
CENTRO ALTERNATIVO CAMPINAS;Diesel TPP;-22.928892;-47.142102;0.0930312;0.4604256;0.2767284;0.04951152;0.15515712;0.10233432;0.04162752;0.1056456;0.07363656;0.00504576;0.01356048;0.00930312;1.30244E-11;0.01356048;0.00678024;8.065332;22.25148624;15.15840912
SHOPPING NOVA AMÉRICA;Diesel TPP;-22.936877;-43.195644;0.0930312;0.4604256;0.2767284;0.04951152;0.15515712;0.10233432;0.04162752;0.1056456;0.07363656;0.00504576;0.01356048;0.00930312;1.30244E-11;0.01356048;0.00678024;8.065332;22.25148624;15.15840912
CIF MINERAÇÃO;Diesel TPP;-21.768340;-42.536335;0.0930312;0.4604256;0.2767284;0.04951152;0.15515712;0.10233432;0.04162752;0.1056456;0.07363656;0.00504576;0.01356048;0.00930312;1.30244E-11;0.01356048;0.00678024;8.065332;22.25148624;15.15840912
NOVA BANDEIRANTES;Diesel TPP;-9.897107;-57.776753;0.092953674;0.460041912;0.276497793;0.04947026;0.155027822;0.102249041;0.04159283;0.105557562;0.073575196;0.005041555;0.01354918;0.009295367;1.30135E-11;0.01354918;0.00677459;8.05861089;22.23294333;15.14577711
CEDASA;Diesel TPP;-22.460028;-47.521093;0.092178414;0.456205032;0.274191723;0.049057664;0.153734846;0.101396255;0.041245934;0.104677182;0.072961558;0.004999507;0.013436176;0.009217841;1.2905E-11;0.013436176;0.006718088;7.99139979;22.04751428;15.01945704
FONTE BOA;Diesel TPP;-2.521763;-66.095794;0.0917391;0.4540308;0.27288495;0.04882386;0.15300216;0.10091301;0.04104936;0.1041783;0.07261383;0.00497568;0.01337214;0.00917391;1.28435E-11;0.01337214;0.00668607;7.9533135;21.94243782;14.94787566
UNIPAC;Diesel TPP;-22.067831;-50.177355;0.090447;0.447636;0.2690415;0.0481362;0.1508472;0.0994917;0.0404712;0.102711;0.0715911;0.0049056;0.0131838;0.0090447;1.26626E-11;0.0131838;0.0065919;7.841295;21.6333894;14.7373422
MANTECORP IQF;Diesel TPP;-22.906204;-43.705135;0.088095378;0.435997464;0.262046421;0.046884659;0.146925173;0.096904916;0.039418949;0.100040514;0.069729731;0.004778054;0.012841021;0.008809538;1.23334E-11;0.012841021;0.006420511;7.63742133;21.07092128;14.3541713
HYPERMARCAS;Diesel TPP;-22.853064;-43.291775;0.088095378;0.435997464;0.262046421;0.046884659;0.146925173;0.096904916;0.039418949;0.100040514;0.069729731;0.004778054;0.012841021;0.008809538;1.23334E-11;0.012841021;0.006420511;7.63742133;21.07092128;14.3541713
MUANÁ;Diesel TPP;-1.531357;-49.221777;0.088069536;0.435869568;0.261969552;0.046870906;0.146882074;0.09687649;0.039407386;0.100011168;0.069709277;0.004776653;0.012837254;0.008806954;1.23297E-11;0.012837254;0.006418627;7.63518096;21.06474031;14.34996063
VALE DO ANARI;Diesel TPP;-9.861545;-62.171376;0.087449328;0.432800064;0.260124696;0.046540829;0.145847693;0.096194261;0.039129869;0.099306864;0.069218366;0.004743014;0.012746851;0.008744933;1.22429E-11;0.012746851;0.006373426;7.58141208;20.91639707;14.24890457
SHOPPING PARQUE DAS BANDEIRAS;Diesel TPP;-22.960649;-47.080225;0.08669991;0.42909108;0.257895495;0.046141986;0.144597816;0.095369901;0.038794536;0.09845583;0.068625183;0.004702368;0.012637614;0.008669991;1.2138E-11;0.012637614;0.006318807;7.51644135;20.73714898;14.12679517
ENVIRA;Diesel TPP;-7.437394;-70.028593;0.085976334;0.425509992;0.255743163;0.045756896;0.143391038;0.094573967;0.038470766;0.097634142;0.068052454;0.004663123;0.012532144;0.008597633;1.20367E-11;0.012532144;0.006266072;7.45371099;20.56408187;14.00889643
EDITORA O DIA;Diesel TPP;-22.958375;-43.192211;0.0852786;0.4220568;0.2536677;0.04538556;0.14222736;0.09380646;0.03815856;0.0968418;0.06750018;0.00462528;0.01243044;0.00852786;1.1939E-11;0.01243044;0.00621522;7.393221;20.39719572;13.89520836
BARREIRINHA;Diesel TPP;-2.773831;-57.036443;0.08372808;0.41438304;0.24905556;0.044560368;0.139641408;0.092100888;0.037464768;0.09508104;0.066272904;0.004541184;0.012204432;0.008372808;1.17219E-11;0.012204432;0.006102216;7.2587988;20.02633762;13.64256821
MARFRIG ALEGRETE;Diesel TPP;-29.795184;-55.782715;0.0826944;0.4092672;0.2459808;0.04401024;0.13791744;0.09096384;0.03700224;0.0939072;0.06545472;0.00448512;0.01205376;0.00826944;1.15772E-11;0.01205376;0.00602688;7.169184;19.77909888;13.47414144
MARFRIG BAGÉ;Diesel TPP;-31.315991;-54.091793;0.0826944;0.4092672;0.2459808;0.04401024;0.13791744;0.09096384;0.03700224;0.0939072;0.06545472;0.00448512;0.01205376;0.00826944;1.15772E-11;0.01205376;0.00602688;7.169184;19.77909888;13.47414144
SENADO FEDERAL;Diesel TPP;-15.720544;-48.153000;0.0826944;0.4092672;0.2459808;0.04401024;0.13791744;0.09096384;0.03700224;0.0939072;0.06545472;0.00448512;0.01205376;0.00826944;1.15772E-11;0.01205376;0.00602688;7.169184;19.77909888;13.47414144
TAD;Diesel TPP;-13.832807;-56.090274;0.0826944;0.4092672;0.2459808;0.04401024;0.13791744;0.09096384;0.03700224;0.0939072;0.06545472;0.00448512;0.01205376;0.00826944;1.15772E-11;0.01205376;0.00602688;7.169184;19.77909888;13.47414144
RIO PRETO DA EVA;Diesel TPP;-2.706233;-59.692852;0.0826944;0.4092672;0.2459808;0.04401024;0.13791744;0.09096384;0.03700224;0.0939072;0.06545472;0.00448512;0.01205376;0.00826944;1.15772E-11;0.01205376;0.00602688;7.169184;19.77909888;13.47414144
ITAMINAS;Diesel TPP;-20.034147;-44.133854;0.0826944;0.4092672;0.2459808;0.04401024;0.13791744;0.09096384;0.03700224;0.0939072;0.06545472;0.00448512;0.01205376;0.00826944;1.15772E-11;0.01205376;0.00602688;7.169184;19.77909888;13.47414144
JUTAÍ;Diesel TPP;-2.745104;-66.767077;0.082616874;0.408883512;0.245750193;0.04396898;0.137788142;0.090878561;0.03696755;0.093819162;0.065393356;0.004480915;0.01204246;0.008261687;1.15664E-11;0.01204246;0.00602123;7.16246289;19.76055597;13.46150943
ABUNÃ;Diesel TPP;-8.795005;-63.816069;0.08217756;0.40670928;0.24444342;0.043735176;0.137055456;0.090395316;0.036770976;0.09332028;0.065045628;0.004457088;0.011978424;0.008217756;1.15049E-11;0.011978424;0.005989212;7.1243766;19.65547951;13.38992806
APIACÁS;Diesel TPP;-9.569182;-57.393008;0.081350616;0.402616608;0.241983612;0.043295074;0.135676282;0.089485678;0.036400954;0.092381208;0.064391081;0.004412237;0.011857886;0.008135062;1.13891E-11;0.011857886;0.005928943;7.05268476;19.45768852;13.25518664
BERURI;Diesel TPP;-3.902587;-61.367842;0.080006832;0.395966016;0.237986424;0.042579907;0.133435123;0.088007515;0.035799667;0.090855216;0.063327442;0.004339354;0.011662013;0.008000683;1.1201E-11;0.011662013;0.005831006;6.93618552;19.13627817;13.03623184
MANAQUIRI;Diesel TPP;-3.437212;-60.453805;0.07959336;0.39391968;0.23675652;0.042359856;0.132745536;0.087552696;0.035614656;0.09038568;0.063000168;0.004316928;0.011601744;0.007959336;1.11431E-11;0.011601744;0.005800872;6.9003396;19.03738267;12.96886114
ITAPIRANGA;Diesel TPP;-2.743313;-58.028349;0.079412466;0.393024408;0.236218437;0.042263584;0.132443842;0.087353713;0.035533714;0.090180258;0.062856986;0.004307117;0.011575376;0.007941247;1.11177E-11;0.011575376;0.005787688;6.88465701;18.99411589;12.93938645
PASTIFÍCIO SANTA AMÁLIA;Diesel TPP;-21.678983;-45.920358;0.079231572;0.392129136;0.235680354;0.042167311;0.132142147;0.087154729;0.035452771;0.089974836;0.062713804;0.004297306;0.011549009;0.007923157;1.10924E-11;0.011549009;0.005774504;6.86897442;18.95084911;12.90991177
BASF GUARATINGUETÁ;Diesel TPP;-22.791766;-45.198331;0.0788181;0.3900828;0.23445045;0.04194726;0.13145256;0.08669991;0.03526776;0.0895053;0.06238653;0.00427488;0.01148874;0.00788181;1.10345E-11;0.01148874;0.00574437;6.8331285;18.85195362;12.84254106
NORTH SHOPPING JÓQUEI;Diesel TPP;-3.715721;-38.592939;0.077526;0.383688;0.230607;0.0412596;0.1292976;0.0852786;0.0346896;0.088038;0.0613638;0.0042048;0.0113004;0.0077526;1.08536E-11;0.0113004;0.0056502;6.72111;18.5429052;12.6320076
MENU;Diesel TPP;-21.264631;-50.637280;0.077526;0.383688;0.230607;0.0412596;0.1292976;0.0852786;0.0346896;0.088038;0.0613638;0.0042048;0.0113004;0.0077526;1.08536E-11;0.0113004;0.0056502;6.72111;18.5429052;12.6320076
TORRE E;Diesel TPP;-23.576554;-46.625080;0.077526;0.383688;0.230607;0.0412596;0.1292976;0.0852786;0.0346896;0.088038;0.0613638;0.0042048;0.0113004;0.0077526;1.08536E-11;0.0113004;0.0056502;6.72111;18.5429052;12.6320076
SÃO PAULO DE OLIVENÇA;Diesel TPP;-3.468233;-68.953504;0.07726758;0.38240904;0.22983831;0.041122068;0.128866608;0.084994338;0.034573968;0.08774454;0.061159254;0.004190784;0.011262732;0.007726758;1.08175E-11;0.011262732;0.005631366;6.6987063;18.48109552;12.58990091
SHOPPING CENTER IGUATEMI BELÉM;Diesel TPP;-1.333303;-48.463786;0.07649232;0.37857216;0.22753224;0.040709472;0.127573632;0.084141552;0.034227072;0.08686416;0.060545616;0.004148736;0.011149728;0.007649232;1.07089E-11;0.011149728;0.005574864;6.6314952;18.29566646;12.46358083
ETERNIT;Diesel TPP;-25.293366;-49.232211;0.07649232;0.37857216;0.22753224;0.040709472;0.127573632;0.084141552;0.034227072;0.08686416;0.060545616;0.004148736;0.011149728;0.007649232;1.07089E-11;0.011149728;0.005574864;6.6314952;18.29566646;12.46358083
PAUINI;Diesel TPP;-7.713920;-66.992006;0.075872112;0.375502656;0.225687384;0.040379395;0.126539251;0.083459323;0.033949555;0.086159856;0.060054706;0.004115098;0.011059325;0.007587211;1.06221E-11;0.011059325;0.005529662;6.57772632;18.14732322;12.36252477
PLASTSEVEN;Diesel TPP;-22.162829;-42.420787;0.075251904;0.372433152;0.223842528;0.040049318;0.12550487;0.082777094;0.033672038;0.085455552;0.059563795;0.004081459;0.010968922;0.00752519;1.05353E-11;0.010968922;0.005484461;6.52395744;17.99897998;12.26146871
SÃO SEBASTIÃO DA BOA VISTA;Diesel TPP;-1.719577;-49.530417;0.075251904;0.372433152;0.223842528;0.040049318;0.12550487;0.082777094;0.033672038;0.085455552;0.059563795;0.004081459;0.010968922;0.00752519;1.05353E-11;0.010968922;0.005484461;6.52395744;17.99897998;12.26146871
MINERAÇÃO ESPERANÇA;Diesel TPP;-20.154173;-44.200883;0.07442496;0.36834048;0.22138272;0.039609216;0.124125696;0.081867456;0.033302016;0.08451648;0.058909248;0.004036608;0.010848384;0.007442496;1.04195E-11;0.010848384;0.005424192;6.4522656;17.80118899;12.1267273
AFUÁ;Diesel TPP;-0.164198;-50.394948;0.074238898;0.367419629;0.220829263;0.039510193;0.123815382;0.081662787;0.033218761;0.084305189;0.058761975;0.004026516;0.010821263;0.00742389;1.03934E-11;0.010821263;0.005410632;6.436134936;17.75668602;12.09641048
SOCIEDADE DE EDUCAÇÃO TIRADENTES;Diesel TPP;-10.887326;-37.075915;0.0723576;0.3581088;0.2152332;0.03850896;0.12067776;0.07959336;0.03237696;0.0821688;0.05727288;0.00392448;0.01054704;0.00723576;1.01301E-11;0.01054704;0.00527352;6.273036;17.30671152;11.78987376
GOIÂNIA SHOPPING;Diesel TPP;-16.640173;-49.309479;0.0723576;0.3581088;0.2152332;0.03850896;0.12067776;0.07959336;0.03237696;0.0821688;0.05727288;0.00392448;0.01054704;0.00723576;1.01301E-11;0.01054704;0.00527352;6.273036;17.30671152;11.78987376
NHAMUNDÁ;Diesel TPP;-2.194577;-56.710883;0.0723576;0.3581088;0.2152332;0.03850896;0.12067776;0.07959336;0.03237696;0.0821688;0.05727288;0.00392448;0.01054704;0.00723576;1.01301E-11;0.01054704;0.00527352;6.273036;17.30671152;11.78987376
LUBRASIL;Diesel TPP;-22.658411;-47.681570;0.0723576;0.3581088;0.2152332;0.03850896;0.12067776;0.07959336;0.03237696;0.0821688;0.05727288;0.00392448;0.01054704;0.00723576;1.01301E-11;0.01054704;0.00527352;6.273036;17.30671152;11.78987376
RENOSA;Diesel TPP;-15.605338;-56.156238;0.07132392;0.35299296;0.21215844;0.037958832;0.118953792;0.078456312;0.031914432;0.08099496;0.056454696;0.003868416;0.010396368;0.007132392;9.98535E-12;0.010396368;0.005198184;6.1834212;17.05947278;11.62144699
EXTRA CARAGUATATUBA;Diesel TPP;-23.622874;-45.437570;0.07029024;0.34787712;0.20908368;0.037408704;0.117229824;0.077319264;0.031451904;0.07982112;0.055636512;0.003812352;0.010245696;0.007029024;9.84063E-12;0.010245696;0.005122848;6.0938064;16.81223405;11.45302022
GRAND HYATT SÃO PAULO;Diesel TPP;-23.616192;-46.697323;0.07029024;0.34787712;0.20908368;0.037408704;0.117229824;0.077319264;0.031451904;0.07982112;0.055636512;0.003812352;0.010245696;0.007029024;9.84063E-12;0.010245696;0.005122848;6.0938064;16.81223405;11.45302022
BERGAMINI;Diesel TPP;-23.511560;-46.599268;0.07029024;0.34787712;0.20908368;0.037408704;0.117229824;0.077319264;0.031451904;0.07982112;0.055636512;0.003812352;0.010245696;0.007029024;9.84063E-12;0.010245696;0.005122848;6.0938064;16.81223405;11.45302022
AEROPORTO INTERNACIONAL SALGADO FILHO;Diesel TPP;-30.207990;-51.104704;0.069876768;0.345830784;0.207853776;0.037188653;0.116540237;0.076864445;0.031266893;0.079351584;0.055309238;0.003789926;0.010185427;0.006987677;9.78275E-12;0.010185427;0.005092714;6.05796048;16.71333855;11.38564952
UARINI;Diesel TPP;-2.979154;-65.159533;0.069876768;0.345830784;0.207853776;0.037188653;0.116540237;0.076864445;0.031266893;0.079351584;0.055309238;0.003789926;0.010185427;0.006987677;9.78275E-12;0.010185427;0.005092714;6.05796048;16.71333855;11.38564952
CANATIBA TUPIS;Diesel TPP;-22.727795;-47.418894;0.0697734;0.3453192;0.2075463;0.03713364;0.11636784;0.07675074;0.03122064;0.0792342;0.05522742;0.00378432;0.01017036;0.00697734;9.76828E-12;0.01017036;0.00508518;6.048999;16.68861468;11.36880684
NOVA MARINGÁ;Diesel TPP;-13.034835;-57.050010;0.069334086;0.343144968;0.206239527;0.036899836;0.115635154;0.076267495;0.031024066;0.078735318;0.054879692;0.003760493;0.010106324;0.006933409;9.70677E-12;0.010106324;0.005053162;6.01091271;16.58353822;11.29722546
IPIXUNA;Diesel TPP;-7.047382;-71.686624;0.068946456;0.341226528;0.205086492;0.036693538;0.114988666;0.075841102;0.030850618;0.078295128;0.054572873;0.003739469;0.010049822;0.006894646;9.6525E-12;0.010049822;0.005024911;5.97730716;16.49082369;11.23406543
PONTA DE PEDRAS;Diesel TPP;-1.401442;-48.868259;0.068719046;0.340101043;0.204410045;0.036572509;0.114609393;0.075590951;0.030748861;0.078036883;0.054392872;0.003727135;0.010016675;0.006871905;9.62067E-12;0.010016675;0.005008337;5.957591904;16.43643117;11.19701154
TISHMAN SPYER;Diesel TPP;-23.489810;-46.841152;0.0684813;0.3389244;0.20370285;0.03644598;0.11421288;0.07532943;0.03064248;0.0777669;0.05420469;0.00371424;0.00998202;0.00684813;9.58738E-12;0.00998202;0.00499101;5.9369805;16.37956626;11.15827338
SILVES;Diesel TPP;-2.874255;-58.435197;0.067757724;0.335343312;0.201550518;0.03606089;0.113006102;0.074533496;0.03031871;0.076945212;0.053631961;0.003674995;0.00987655;0.006775772;9.48608E-12;0.00987655;0.004938275;5.87425014;16.20649914;11.04037464
PRAINHA;Diesel TPP;-1.802940;-53.480621;0.06741661;0.333655085;0.200535847;0.035879348;0.112437193;0.074158271;0.030166076;0.076557845;0.05336196;0.003656494;0.009826828;0.006741661;9.43833E-12;0.009826828;0.004913414;5.844677256;16.12491036;10.98479381
CURRALINHO;Diesel TPP;-1.808028;-49.790465;0.067230547;0.332734234;0.19998239;0.035780325;0.112126879;0.073953602;0.030082821;0.076346554;0.053214687;0.003646403;0.009799707;0.006723055;9.41228E-12;0.009799707;0.004899853;5.828546592;16.08040739;10.95447699
RORAINÓPOLIS;Diesel TPP;0.929133;-60.433308;0.0671892;0.3325296;0.1998594;0.03575832;0.11205792;0.07390812;0.03006432;0.0762996;0.05318196;0.00364416;0.00979368;0.00671892;9.40649E-12;0.00979368;0.00489684;5.824962;16.07051784;10.94773992
GURUPÁ;Diesel TPP;-1.409937;-51.642252;0.066796402;0.330585581;0.198690991;0.035549271;0.111402812;0.073476042;0.029888559;0.075853541;0.05287105;0.003622856;0.009736425;0.00667964;9.3515E-12;0.009736425;0.004868212;5.790908376;15.97656712;10.88373775
PORTO DE MOZ;Diesel TPP;-1.754706;-52.233917;0.066310572;0.328181136;0.197245854;0.035290711;0.110592547;0.072941629;0.029671171;0.075301836;0.052486504;0.003596506;0.009665609;0.006631057;9.28348E-12;0.009665609;0.004832804;5.74878942;15.86036491;10.80457717
FARO;Diesel TPP;-2.172097;-56.740936;0.066300235;0.328129978;0.197215106;0.03528521;0.110575308;0.072930259;0.029666546;0.075290098;0.052478322;0.003595945;0.009664102;0.006630024;9.28203E-12;0.009664102;0.004832051;5.747893272;15.85789253;10.8028929
CONDOMÍNIO DO CASTANHEIRA SHOPPING CENTER;Diesel TPP;-1.326131;-48.371493;0.06615552;0.32741376;0.19678464;0.035208192;0.110333952;0.072771072;0.029601792;0.07512576;0.052363776;0.003588096;0.009643008;0.006615552;9.26177E-12;0.009643008;0.004821504;5.7353472;15.8232791;10.77931315
GRAFITE PEDRA AZUL;Diesel TPP;-16.005924;-41.265089;0.065845416;0.325879008;0.195862212;0.035043154;0.109816762;0.072429958;0.029463034;0.074773608;0.052118321;0.003571277;0.009597806;0.006584542;9.21836E-12;0.009597806;0.004798903;5.70846276;15.74910748;10.72878512
ESDEVA;Diesel TPP;-21.664142;-43.409815;0.06576789;0.32549532;0.195631605;0.035001894;0.109687464;0.072344679;0.029428344;0.07468557;0.052056957;0.003567072;0.009586506;0.006576789;9.2075E-12;0.009586506;0.004793253;5.70174165;15.73056458;10.71615311
RÁDIO E TELEVISÃO BANDEIRANTE;Diesel TPP;-23.596038;-46.708743;0.06576789;0.32549532;0.195631605;0.035001894;0.109687464;0.072344679;0.029428344;0.07468557;0.052056957;0.003567072;0.009586506;0.006576789;9.2075E-12;0.009586506;0.004793253;5.70174165;15.73056458;10.71615311
NOVA CALIFÓRNIA;Diesel TPP;-8.771306;-63.803065;0.06538026;0.32357688;0.19447857;0.034795596;0.109040976;0.071918286;0.029254896;0.07424538;0.051750138;0.003546048;0.009530004;0.006538026;9.15324E-12;0.009530004;0.004765002;5.6681361;15.63785005;10.65299308
NOVA MONTE VERDE;Diesel TPP;-9.903297;-57.739602;0.064656684;0.319995792;0.192326238;0.034410506;0.107834198;0.071122352;0.028931126;0.073423692;0.051177409;0.003506803;0.009424534;0.006465668;9.05194E-12;0.009424534;0.004712267;5.60540574;15.46478294;10.53509434
CAREIRO DA VÁRZEA;Diesel TPP;-3.193157;-59.820110;0.064605;0.31974;0.1921725;0.034383;0.107748;0.0710655;0.028908;0.073365;0.0511365;0.003504;0.009417;0.0064605;9.0447E-12;0.009417;0.0047085;5.600925;15.452421;10.526673
SHOPPING GUARARAPES;Diesel TPP;-8.156778;-34.963101;0.064605;0.31974;0.1921725;0.034383;0.107748;0.0710655;0.028908;0.073365;0.0511365;0.003504;0.009417;0.0064605;9.0447E-12;0.009417;0.0047085;5.600925;15.452421;10.526673
CINDACTA IV;Diesel TPP;-3.036777;-60.035768;0.064605;0.31974;0.1921725;0.034383;0.107748;0.0710655;0.028908;0.073365;0.0511365;0.003504;0.009417;0.0064605;9.0447E-12;0.009417;0.0047085;5.600925;15.452421;10.526673
PROCEDA;Diesel TPP;-23.622364;-46.669128;0.064449948;0.318972624;0.191711286;0.034300481;0.107489405;0.070894943;0.028838621;0.073188924;0.051013772;0.00349559;0.009394399;0.006444995;9.02299E-12;0.009394399;0.0046972;5.58748278;15.41533519;10.50140898
BARCELOS;Diesel TPP;-0.977890;-62.924233;0.06357132;0.31462416;0.18909774;0.033832872;0.106024032;0.069928452;0.028445472;0.07219116;0.050318316;0.003447936;0.009266328;0.006357132;8.89998E-12;0.009266328;0.004633164;5.5113102;15.20518226;10.35824623
CERÂMICA URUSSANGA;Diesel TPP;-28.511715;-49.321554;0.063261216;0.313089408;0.188175312;0.033667834;0.105506842;0.069587338;0.028306714;0.071839008;0.050072861;0.003431117;0.009221126;0.006326122;8.85657E-12;0.009221126;0.004610563;5.48442576;15.13101064;10.3077182
AEROPORTO INTERNACIONAL DE BRASÍLIA;Diesel TPP;-15.780022;-48.087082;0.06253764;0.30950832;0.18602298;0.033282744;0.104300064;0.068791404;0.027982944;0.07101732;0.049500132;0.003391872;0.009115656;0.006253764;8.75527E-12;0.009115656;0.004557828;5.4216954;14.95794353;10.18981946
PACARAIMA;Diesel TPP;4.477857;-61.135122;0.062227536;0.307973568;0.185100552;0.033117706;0.103782874;0.06845029;0.027844186;0.070665168;0.049254677;0.003375053;0.009070454;0.006222754;8.71186E-12;0.009070454;0.004535227;5.39481096;14.88377191;10.13929143
PORTO ALEGRE DO NORTE;Diesel TPP;-10.880433;-51.631500;0.062186189;0.307768934;0.184977562;0.0330957;0.103713915;0.068404808;0.027825684;0.070618214;0.049221949;0.00337281;0.009064428;0.006218619;8.70607E-12;0.009064428;0.004532214;5.391226368;14.87388236;10.13255436
SERGIFIL INDÚSTRIA TÊXTIL;Diesel TPP;-10.891877;-37.069907;0.0620208;0.3069504;0.1844856;0.03300768;0.10343808;0.06822288;0.02775168;0.0704304;0.04909104;0.00336384;0.00904032;0.00620208;8.68291E-12;0.00904032;0.00452016;5.376888;14.83432416;10.10560608
ARAGUAIA SHOPPING;Diesel TPP;-16.609908;-49.287506;0.0620208;0.3069504;0.1844856;0.03300768;0.10343808;0.06822288;0.02775168;0.0704304;0.04909104;0.00336384;0.00904032;0.00620208;8.68291E-12;0.00904032;0.00452016;5.376888;14.83432416;10.10560608
APARECIDA PARTE III;Diesel TPP;-2.997007;-60.059114;0.0620208;0.3069504;0.1844856;0.03300768;0.10343808;0.06822288;0.02775168;0.0704304;0.04909104;0.00336384;0.00904032;0.00620208;8.68291E-12;0.00904032;0.00452016;5.376888;14.83432416;10.10560608
URUCURITUBA (TABOCAL);Diesel TPP;-2.674538;-57.663477;0.06124554;0.30311352;0.18217953;0.032595084;0.102145104;0.067370094;0.027404784;0.06955002;0.048477402;0.003321792;0.008927316;0.006124554;8.57438E-12;0.008927316;0.004463658;5.3096769;14.64889511;9.979286004
AEROPORTO INTERNACIONAL DO RECIFE;Diesel TPP;-8.029112;-34.927682;0.061193856;0.302857728;0.182025792;0.032567578;0.102058906;0.067313242;0.027381658;0.069491328;0.048436493;0.003318989;0.008919782;0.006119386;8.56714E-12;0.008919782;0.004459891;5.30519616;14.63653317;9.970864666
RIBEIRÃO CASCALHEIRA;Diesel TPP;-12.943109;-51.835839;0.060573648;0.299788224;0.180180936;0.032237501;0.101024525;0.066631013;0.027104141;0.068787024;0.047945582;0.00328535;0.008829379;0.006057365;8.48031E-12;0.008829379;0.00441469;5.25142728;14.48818993;9.869808605
NOVO REMANSO;Diesel TPP;-3.127241;-58.421454;0.0594366;0.2941608;0.1767987;0.03163236;0.09912816;0.06538026;0.02659536;0.0674958;0.04704558;0.00322368;0.00866364;0.00594366;8.32112E-12;0.00866364;0.00433182;5.152851;14.21622732;9.68453916
TAPURAH;Diesel TPP;-12.543966;-56.469762;0.058961107;0.291807514;0.17538431;0.031379301;0.098335135;0.064857218;0.026382597;0.066955834;0.046669215;0.003197891;0.008594331;0.005896111;8.25456E-12;0.008594331;0.004297165;5.111628192;14.1024975;9.607062847
AEROPORTO INTERNACIONAL DE CONGONHAS - SÃO PAULO;Diesel TPP;-23.627541;-46.656546;0.058738866;0.290707608;0.174723237;0.031261024;0.097964482;0.064612753;0.026283154;0.066703458;0.046493306;0.003185837;0.008561936;0.005873887;8.22344E-12;0.008561936;0.004280968;5.09236101;14.04934117;9.570851092
SHOPPING PARK DOS LAGOS;Diesel TPP;-22.891574;-42.027713;0.05788608;0.28648704;0.17218656;0.030807168;0.096542208;0.063674688;0.025901568;0.06573504;0.045818304;0.003139584;0.008437632;0.005788608;8.10405E-12;0.008437632;0.004218816;5.0184288;13.84536922;9.431899008
DOCE MINEIRO;Diesel TPP;-18.717425;-49.208937;0.05788608;0.28648704;0.17218656;0.030807168;0.096542208;0.063674688;0.025901568;0.06573504;0.045818304;0.003139584;0.008437632;0.005788608;8.10405E-12;0.008437632;0.004218816;5.0184288;13.84536922;9.431899008
HOSPITAL SÃO LUIZ;Diesel TPP;-23.640408;-46.539924;0.05788608;0.28648704;0.17218656;0.030807168;0.096542208;0.063674688;0.025901568;0.06573504;0.045818304;0.003139584;0.008437632;0.005788608;8.10405E-12;0.008437632;0.004218816;5.0184288;13.84536922;9.431899008
ITAMARATI;Diesel TPP;-6.431983;-68.243140;0.05711082;0.28265016;0.16988049;0.030394572;0.095249232;0.062821902;0.025554672;0.06485466;0.045204666;0.003097536;0.008324628;0.005711082;7.99551E-12;0.008324628;0.004162314;4.9512177;13.65994016;9.305578932
FORTLEV SUL;Diesel TPP;-26.371032;-48.719494;0.0568524;0.2813712;0.1691118;0.03025704;0.09481824;0.06253764;0.02543904;0.0645612;0.04500012;0.00308352;0.00828696;0.00568524;7.95934E-12;0.00828696;0.00414348;4.928814;13.59813048;9.26347224
AEROPORTO INTERNACIONAL TANCREDO NEVES;Diesel TPP;-19.651130;-43.961741;0.0568524;0.2813712;0.1691118;0.03025704;0.09481824;0.06253764;0.02543904;0.0645612;0.04500012;0.00308352;0.00828696;0.00568524;7.95934E-12;0.00828696;0.00414348;4.928814;13.59813048;9.26347224
GEDORE;Diesel TPP;-29.744071;-51.154120;0.0568524;0.2813712;0.1691118;0.03025704;0.09481824;0.06253764;0.02543904;0.0645612;0.04500012;0.00308352;0.00828696;0.00568524;7.95934E-12;0.00828696;0.00414348;4.928814;13.59813048;9.26347224
AJ RORATO;Diesel TPP;-23.926752;-52.502307;0.05659398;0.28009224;0.16834311;0.030119508;0.094387248;0.062253378;0.025323408;0.06426774;0.044795574;0.003069504;0.008249292;0.005659398;7.92316E-12;0.008249292;0.004124646;4.9064103;13.5363208;9.221365548
SÃO SEBASTIÃO DO UATUMÃ;Diesel TPP;-1.974621;-58.915137;0.056438928;0.279324864;0.167881896;0.030036989;0.094128653;0.062082821;0.025254029;0.064091664;0.044672846;0.003061094;0.008226691;0.005643893;7.90145E-12;0.008226691;0.004113346;4.89296808;13.49923499;9.196101533
SANTO ANTÔNIO DO IÇÁ;Diesel TPP;-3.108103;-67.954546;0.056387244;0.279069072;0.167728158;0.030009482;0.094042454;0.062025968;0.025230902;0.064032972;0.044631937;0.003058291;0.008219158;0.005638724;7.89421E-12;0.008219158;0.004109579;4.88848734;13.48687305;9.187680194
COMBUSTOL;Diesel TPP;-23.489971;-46.754845;0.05620635;0.2781738;0.167190075;0.02991321;0.09374076;0.061826985;0.02514996;0.06382755;0.044488755;0.00304848;0.00819279;0.005620635;7.86889E-12;0.00819279;0.004096395;4.87280475;13.44360627;9.15820551
OEIRAS DO PARÁ;Diesel TPP;-2.007466;-49.861040;0.056025456;0.277278528;0.166651992;0.029816938;0.093439066;0.061628002;0.025069018;0.063622128;0.044345573;0.003038669;0.008166422;0.005602546;7.84356E-12;0.008166422;0.004083211;4.85712216;13.40033949;9.128730826
SONDA - SÃO BERNARDO;Diesel TPP;-23.674315;-46.560604;0.05581872;0.27625536;0.16603704;0.029706912;0.093094272;0.061400592;0.024976512;0.06338736;0.044181936;0.003027456;0.008136288;0.005581872;7.81462E-12;0.008136288;0.004068144;4.8391992;13.35089174;9.095045472
CANUTAMA;Diesel TPP;-7.501469;-63.822270;0.05375136;0.26602368;0.15988752;0.028606656;0.089646336;0.059126496;0.024051456;0.06103968;0.042545568;0.002915328;0.007834944;0.005375136;7.52519E-12;0.007834944;0.003917472;4.6599696;12.85641427;8.758191936
TOTVS;Diesel TPP;-23.572935;-46.585535;0.05375136;0.26602368;0.15988752;0.028606656;0.089646336;0.059126496;0.024051456;0.06103968;0.042545568;0.002915328;0.007834944;0.005375136;7.52519E-12;0.007834944;0.003917472;4.6599696;12.85641427;8.758191936
TONANTINS;Diesel TPP;-2.795679;-67.652313;0.05349294;0.26474472;0.15911883;0.028469124;0.089215344;0.058842234;0.023935824;0.06074622;0.042341022;0.002901312;0.007797276;0.005349294;7.48901E-12;0.007797276;0.003898638;4.6375659;12.79460459;8.716085244
BOA VISTA DO RAMOS;Diesel TPP;-2.973811;-57.579969;0.053286204;0.263721552;0.158503878;0.028359098;0.08887055;0.058614824;0.023843318;0.060511452;0.042177385;0.002890099;0.007767142;0.00532862;7.46007E-12;0.007767142;0.003883571;4.61964294;12.74515684;8.68239989
ADRIA;Diesel TPP;-21.269711;-48.310999;0.05271768;0.26090784;0.15681276;0.028056528;0.087922368;0.057989448;0.023588928;0.05986584;0.041727384;0.002859264;0.007684272;0.005271768;7.38048E-12;0.007684272;0.003842136;4.5703548;12.60917554;8.589765168
SOCIEDADE HOSPITALAR SAMARITANO;Diesel TPP;-23.539039;-46.661402;0.052676333;0.260703206;0.15668977;0.028034523;0.087853409;0.057943966;0.023570427;0.059818886;0.041694657;0.002857021;0.007678245;0.005267633;7.37469E-12;0.007678245;0.003839123;4.566770208;12.59928599;8.583028097
SHOPPING PARK EUROPEU;Diesel TPP;-26.975036;-49.091438;0.052510944;0.259884672;0.156197808;0.027946502;0.087577574;0.057762038;0.023496422;0.059631072;0.041563747;0.002848051;0.007654138;0.005251094;7.35153E-12;0.007654138;0.003827069;4.55243184;12.55972779;8.556079814
TRANSTECHNOLOGY;Diesel TPP;-23.679090;-46.624999;0.052510944;0.259884672;0.156197808;0.027946502;0.087577574;0.057762038;0.023496422;0.059631072;0.041563747;0.002848051;0.007654138;0.005251094;7.35153E-12;0.007654138;0.003827069;4.55243184;12.55972779;8.556079814
SHOPPING PARAUAPEBAS;Diesel TPP;-6.071226;-49.898588;0.052510944;0.259884672;0.156197808;0.027946502;0.087577574;0.057762038;0.023496422;0.059631072;0.041563747;0.002848051;0.007654138;0.005251094;7.35153E-12;0.007654138;0.003827069;4.55243184;12.55972779;8.556079814
DHB COMPONENTES AUTOMOTIVOS (UNIDADE 2);Diesel TPP;-30.153382;-51.163755;0.052510944;0.259884672;0.156197808;0.027946502;0.087577574;0.057762038;0.023496422;0.059631072;0.041563747;0.002848051;0.007654138;0.005251094;7.35153E-12;0.007654138;0.003827069;4.55243184;12.55972779;8.556079814
INDUSTRIAL CERÂMICOS;Diesel TPP;-22.357001;-47.506296;0.052510944;0.259884672;0.156197808;0.027946502;0.087577574;0.057762038;0.023496422;0.059631072;0.041563747;0.002848051;0.007654138;0.005251094;7.35153E-12;0.007654138;0.003827069;4.55243184;12.55972779;8.556079814
MVC COMPONENTES PLÁSTICOS;Diesel TPP;-25.515157;-49.145193;0.052510944;0.259884672;0.156197808;0.027946502;0.087577574;0.057762038;0.023496422;0.059631072;0.041563747;0.002848051;0.007654138;0.005251094;7.35153E-12;0.007654138;0.003827069;4.55243184;12.55972779;8.556079814
ALTERO DESIGN;Diesel TPP;-29.630709;-50.991177;0.052510944;0.259884672;0.156197808;0.027946502;0.087577574;0.057762038;0.023496422;0.059631072;0.041563747;0.002848051;0.007654138;0.005251094;7.35153E-12;0.007654138;0.003827069;4.55243184;12.55972779;8.556079814
CASTELO BRANCO OFFICE PARK;Diesel TPP;-23.495477;-46.943462;0.05233005;0.2589894;0.155659725;0.02785023;0.08727588;0.057563055;0.02341548;0.05942565;0.041420565;0.00283824;0.00762777;0.005233005;7.32621E-12;0.00762777;0.003813885;4.53674925;12.51646101;8.52660513
AEROPORTO INTERNACIONAL DE SALVADOR;Diesel TPP;-12.912192;-38.331891;0.052278366;0.258733608;0.155505987;0.027822724;0.087189682;0.057506203;0.023392354;0.059366958;0.041379656;0.002835437;0.007620236;0.005227837;7.31897E-12;0.007620236;0.003810118;4.53226851;12.50409907;8.518183792
BLUE TREE PARK ANGRA DOS REIS;Diesel TPP;-22.998215;-44.309441;0.051684;0.255792;0.153738;0.0275064;0.0861984;0.0568524;0.0231264;0.058692;0.0409092;0.0028032;0.0075336;0.0051684;7.23576E-12;0.0075336;0.0037668;4.48074;12.3619368;8.4213384
CABO DE SANTO AGOSTINHO;Diesel TPP;-8.286659;-35.022783;0.051684;0.255792;0.153738;0.0275064;0.0861984;0.0568524;0.0231264;0.058692;0.0409092;0.0028032;0.0075336;0.0051684;7.23576E-12;0.0075336;0.0037668;4.48074;12.3619368;8.4213384
SÍNCROTRON;Diesel TPP;-22.936838;-47.058042;0.051684;0.255792;0.153738;0.0275064;0.0861984;0.0568524;0.0231264;0.058692;0.0409092;0.0028032;0.0075336;0.0051684;7.23576E-12;0.0075336;0.0037668;4.48074;12.3619368;8.4213384
CIA DE ALIMENTOS IBITURUNA;Diesel TPP;-18.836201;-41.909986;0.051684;0.255792;0.153738;0.0275064;0.0861984;0.0568524;0.0231264;0.058692;0.0409092;0.0028032;0.0075336;0.0051684;7.23576E-12;0.0075336;0.0037668;4.48074;12.3619368;8.4213384
BYK;Diesel TPP;-20.892988;-49.594357;0.051684;0.255792;0.153738;0.0275064;0.0861984;0.0568524;0.0231264;0.058692;0.0409092;0.0028032;0.0075336;0.0051684;7.23576E-12;0.0075336;0.0037668;4.48074;12.3619368;8.4213384
INDÚSTRIA DE FELTROS SANTA FÉ;Diesel TPP;-23.532591;-46.198742;0.051684;0.255792;0.153738;0.0275064;0.0861984;0.0568524;0.0231264;0.058692;0.0409092;0.0028032;0.0075336;0.0051684;7.23576E-12;0.0075336;0.0037668;4.48074;12.3619368;8.4213384
SANTA FÉ;Diesel TPP;-23.542192;-46.172649;0.051684;0.255792;0.153738;0.0275064;0.0861984;0.0568524;0.0231264;0.058692;0.0409092;0.0028032;0.0075336;0.0051684;7.23576E-12;0.0075336;0.0037668;4.48074;12.3619368;8.4213384
HUDTELFA I;Diesel TPP;-22.788809;-47.298138;0.051684;0.255792;0.153738;0.0275064;0.0861984;0.0568524;0.0231264;0.058692;0.0409092;0.0028032;0.0075336;0.0051684;7.23576E-12;0.0075336;0.0037668;4.48074;12.3619368;8.4213384
TECELAGEM DE FITAS SANTA JÚLIA;Diesel TPP;-22.774249;-47.258313;0.051684;0.255792;0.153738;0.0275064;0.0861984;0.0568524;0.0231264;0.058692;0.0409092;0.0028032;0.0075336;0.0051684;7.23576E-12;0.0075336;0.0037668;4.48074;12.3619368;8.4213384
CONDOMÍNIO DO EDIFÍCIO BARÃO DE MAUÁ II;Diesel TPP;-22.987456;-43.360439;0.051684;0.255792;0.153738;0.0275064;0.0861984;0.0568524;0.0231264;0.058692;0.0409092;0.0028032;0.0075336;0.0051684;7.23576E-12;0.0075336;0.0037668;4.48074;12.3619368;8.4213384
CONDOMÍNIO EDIFÍCIOS NEW YORK E LOS ANGELES;Diesel TPP;-23.533753;-46.563626;0.051684;0.255792;0.153738;0.0275064;0.0861984;0.0568524;0.0231264;0.058692;0.0409092;0.0028032;0.0075336;0.0051684;7.23576E-12;0.0075336;0.0037668;4.48074;12.3619368;8.4213384
VIDEPLAST;Diesel TPP;-27.009918;-51.144471;0.051684;0.255792;0.153738;0.0275064;0.0861984;0.0568524;0.0231264;0.058692;0.0409092;0.0028032;0.0075336;0.0051684;7.23576E-12;0.0075336;0.0037668;4.48074;12.3619368;8.4213384
ASSIS BRASIL;Diesel TPP;-10.938410;-69.572972;0.051663326;0.255689683;0.153676505;0.027495397;0.086163921;0.056829659;0.023117149;0.058668523;0.040892836;0.002802079;0.007530587;0.005166333;7.23287E-12;0.007530587;0.003765293;4.478947704;12.35699203;8.417969865
JURUÁ;Diesel TPP;-3.477284;-66.061638;0.051632316;0.255536208;0.153584262;0.027478894;0.086112202;0.056795548;0.023103274;0.058633308;0.040868291;0.002800397;0.007526066;0.005163232;7.22852E-12;0.007526066;0.003763033;4.47625926;12.34957486;8.412917062
GAÚCHA DO NORTE;Diesel TPP;-13.196199;-53.255058;0.05090874;0.25195512;0.15143193;0.027093804;0.084905424;0.055999614;0.022779504;0.05781162;0.040295562;0.002761152;0.007420596;0.005090874;7.12722E-12;0.007420596;0.003710298;4.4135289;12.17650775;8.295018324
MARAÃ;Diesel TPP;-1.853893;-65.579779;0.050857056;0.251699328;0.151278192;0.027066298;0.084819226;0.055942762;0.022756378;0.057752928;0.040254653;0.002758349;0.007413062;0.005085706;7.11999E-12;0.007413062;0.003706531;4.40904816;12.16414581;8.286596986
ASSOCIAÇÃO PRÓ-ENSINO NOVO HANBURGO;Diesel TPP;-29.669996;-51.119998;0.050236848;0.248629824;0.149433336;0.026736221;0.083784845;0.055260533;0.022478861;0.057048624;0.039763742;0.00272471;0.007322659;0.005023685;7.03316E-12;0.007322659;0.00366133;4.35527928;12.01580257;8.185540925
LIMOEIRO;Diesel TPP;-1.888202;-66.995374;0.04987506;0.24683928;0.14835717;0.026543676;0.083181456;0.054862566;0.022316976;0.05663778;0.039477378;0.002705088;0.007269924;0.004987506;6.98251E-12;0.007269924;0.003634962;4.3239141;11.92926901;8.126591556
FIBRASA NORDESTE;Diesel TPP;-7.911566;-34.890608;0.04961664;0.24556032;0.14758848;0.026406144;0.082750464;0.054578304;0.022201344;0.05634432;0.039272832;0.002691072;0.007232256;0.004961664;6.94633E-12;0.007232256;0.003616128;4.3015104;11.86745933;8.084484864
GRANJA BRASÍLIA;Diesel TPP;-19.959967;-44.198186;0.04961664;0.24556032;0.14758848;0.026406144;0.082750464;0.054578304;0.022201344;0.05634432;0.039272832;0.002691072;0.007232256;0.004961664;6.94633E-12;0.007232256;0.003616128;4.3015104;11.86745933;8.084484864
SANSUY;Diesel TPP;-12.715164;-38.325344;0.04961664;0.24556032;0.14758848;0.026406144;0.082750464;0.054578304;0.022201344;0.05634432;0.039272832;0.002691072;0.007232256;0.004961664;6.94633E-12;0.007232256;0.003616128;4.3015104;11.86745933;8.084484864
CRISTALINA ALIMENTOS;Diesel TPP;-16.777212;-47.606300;0.04961664;0.24556032;0.14758848;0.026406144;0.082750464;0.054578304;0.022201344;0.05634432;0.039272832;0.002691072;0.007232256;0.004961664;6.94633E-12;0.007232256;0.003616128;4.3015104;11.86745933;8.084484864
HOSPITAL BARRA D´OR;Diesel TPP;-22.985559;-43.274608;0.04961664;0.24556032;0.14758848;0.026406144;0.082750464;0.054578304;0.022201344;0.05634432;0.039272832;0.002691072;0.007232256;0.004961664;6.94633E-12;0.007232256;0.003616128;4.3015104;11.86745933;8.084484864
CONDOMÍNIO SHOPPING CENTER LAPA;Diesel TPP;-12.986505;-38.465255;0.04961664;0.24556032;0.14758848;0.026406144;0.082750464;0.054578304;0.022201344;0.05634432;0.039272832;0.002691072;0.007232256;0.004961664;6.94633E-12;0.007232256;0.003616128;4.3015104;11.86745933;8.084484864
BERGAMAIS;Diesel TPP;-23.533595;-46.599268;0.04961664;0.24556032;0.14758848;0.026406144;0.082750464;0.054578304;0.022201344;0.05634432;0.039272832;0.002691072;0.007232256;0.004961664;6.94633E-12;0.007232256;0.003616128;4.3015104;11.86745933;8.084484864
MORUMBI CORPORATE ADMINISTRAÇÃO;Diesel TPP;-23.592443;-46.615747;0.0490998;0.2430024;0.1460511;0.02613108;0.08188848;0.05400978;0.02197008;0.0557574;0.03886374;0.00266304;0.00715692;0.00490998;6.87397E-12;0.00715692;0.00357846;4.256703;11.74383996;8.00027148
SANTA IZABEL DO RIO NEGRO;Diesel TPP;-0.272464;-65.475361;0.048169488;0.238398144;0.143283816;0.025635965;0.080336909;0.052986437;0.021553805;0.054700944;0.038127374;0.002612582;0.007021315;0.004816949;6.74373E-12;0.007021315;0.003510658;4.17604968;11.5213251;7.848687389
MERCOCÍTRICO;Diesel TPP;-21.477928;-47.356286;0.0478077;0.2366076;0.14220765;0.02544342;0.07973352;0.05258847;0.02139192;0.0542901;0.03784101;0.00259296;0.00696858;0.00478077;6.69308E-12;0.00696858;0.00348429;4.1446845;11.43479154;7.78973802
SANSUY;Diesel TPP;-23.646709;-46.848321;0.04716165;0.2334102;0.140285925;0.02509959;0.07865604;0.051877815;0.02110284;0.05355645;0.037329645;0.00255792;0.00687441;0.004716165;6.60263E-12;0.00687441;0.003437205;4.08867525;11.28026733;7.68447129
NUTRIBEM;Diesel TPP;-21.019246;-49.498074;0.04703244;0.23277072;0.13990158;0.025030824;0.078440544;0.051735684;0.021045024;0.05340972;0.037227372;0.002550912;0.006855576;0.004703244;6.58454E-12;0.006855576;0.003427788;4.0774734;11.24936249;7.663417944
MARFRIG;Diesel TPP;-30.348569;-54.309344;0.04703244;0.23277072;0.13990158;0.025030824;0.078440544;0.051735684;0.021045024;0.05340972;0.037227372;0.002550912;0.006855576;0.004703244;6.58454E-12;0.006855576;0.003427788;4.0774734;11.24936249;7.663417944
TORRE D;Diesel TPP;-23.530290;-46.704388;0.04703244;0.23277072;0.13990158;0.025030824;0.078440544;0.051735684;0.021045024;0.05340972;0.037227372;0.002550912;0.006855576;0.004703244;6.58454E-12;0.006855576;0.003427788;4.0774734;11.24936249;7.663417944
ROYAL PALM PLAZA;Diesel TPP;-22.886625;-47.093529;0.0465156;0.2302128;0.1383642;0.02475576;0.07757856;0.05116716;0.02081376;0.0528228;0.03681828;0.00252288;0.00678024;0.00465156;6.51218E-12;0.00678024;0.00339012;4.032666;11.12574312;7.57920456
CONDOMÍNIO CIVIL PANTANAL SHOPPING;Diesel TPP;-15.581522;-56.081432;0.0465156;0.2302128;0.1383642;0.02475576;0.07757856;0.05116716;0.02081376;0.0528228;0.03681828;0.00252288;0.00678024;0.00465156;6.51218E-12;0.00678024;0.00339012;4.032666;11.12574312;7.57920456
PSJ;Diesel TPP;-23.270239;-45.956530;0.0465156;0.2302128;0.1383642;0.02475576;0.07757856;0.05116716;0.02081376;0.0528228;0.03681828;0.00252288;0.00678024;0.00465156;6.51218E-12;0.00678024;0.00339012;4.032666;11.12574312;7.57920456
SONDA - SANTO AMARO;Diesel TPP;-23.654843;-46.700499;0.0465156;0.2302128;0.1383642;0.02475576;0.07757856;0.05116716;0.02081376;0.0528228;0.03681828;0.00252288;0.00678024;0.00465156;6.51218E-12;0.00678024;0.00339012;4.032666;11.12574312;7.57920456
BANCO SANTANDER BRASIL;Diesel TPP;-23.534067;-46.654263;0.0465156;0.2302128;0.1383642;0.02475576;0.07757856;0.05116716;0.02081376;0.0528228;0.03681828;0.00252288;0.00678024;0.00465156;6.51218E-12;0.00678024;0.00339012;4.032666;11.12574312;7.57920456
SHOPPING PRAIA DA COSTA;Diesel TPP;-20.343580;-40.289363;0.0465156;0.2302128;0.1383642;0.02475576;0.07757856;0.05116716;0.02081376;0.0528228;0.03681828;0.00252288;0.00678024;0.00465156;6.51218E-12;0.00678024;0.00339012;4.032666;11.12574312;7.57920456
CAAPIRANGA;Diesel TPP;-3.327627;-61.212246;0.046153812;0.228422256;0.137288034;0.024563215;0.076975171;0.050769193;0.020651875;0.052411956;0.036531916;0.002503258;0.006727505;0.004615381;6.46153E-12;0.006727505;0.003363752;4.00130082;11.03920956;7.520255191
PLASDIL - PLÁSTICOS DIVINÓPOLIS;Diesel TPP;-20.614738;-42.145016;0.045792024;0.226631712;0.136211868;0.02437067;0.076371782;0.050371226;0.02048999;0.052001112;0.036245551;0.002483635;0.00667477;0.004579202;6.41088E-12;0.00667477;0.003337385;3.96993564;10.952676;7.461305822
SHOPPING BOA VISTA;Diesel TPP;-8.059027;-34.892663;0.0452235;0.223818;0.13452075;0.0240681;0.0754236;0.04974585;0.0202356;0.0513555;0.03579555;0.0024528;0.0065919;0.00452235;6.33129E-12;0.0065919;0.00329595;3.9206475;10.8166947;7.3686711
ALVARÃES;Diesel TPP;-3.211967;-64.805540;0.044654976;0.221004288;0.132829632;0.02376553;0.074475418;0.049120474;0.01998121;0.050709888;0.035345549;0.002421965;0.00650903;0.004465498;6.2517E-12;0.00650903;0.003254515;3.87135936;10.6807134;7.276036378
CACHOEIRA DO ARARI;Diesel TPP;-0.990830;-48.895388;0.044654976;0.221004288;0.132829632;0.02376553;0.074475418;0.049120474;0.01998121;0.050709888;0.035345549;0.002421965;0.00650903;0.004465498;6.2517E-12;0.00650903;0.003254515;3.87135936;10.6807134;7.276036378
MANOEL URBANO;Diesel TPP;-8.831575;-69.264516;0.043662643;0.216093082;0.129877862;0.023237407;0.072820408;0.048028908;0.019537183;0.049583002;0.034560092;0.002368143;0.006364385;0.004366264;6.11277E-12;0.006364385;0.003182193;3.785329152;10.44336421;7.11434668
REFRIGERANTES DO TRIÂNGULO;Diesel TPP;-18.882770;-48.196365;0.043492086;0.215248968;0.129370527;0.023146636;0.072535954;0.047841295;0.019460866;0.049389318;0.034425092;0.002358893;0.006339524;0.004349209;6.08889E-12;0.006339524;0.003169762;3.77054271;10.40256982;7.086556264
INDÚSTRIA DE CAL CRUZEIRO;Diesel TPP;-20.451532;-45.554619;0.04341456;0.21486528;0.12913992;0.023105376;0.072406656;0.047756016;0.019426176;0.04930128;0.034363728;0.002354688;0.006328224;0.004341456;6.07804E-12;0.006328224;0.003164112;3.7638216;10.38402691;7.073924256
SUPERMERCADO MUNDIAL;Diesel TPP;-22.879636;-43.474422;0.04341456;0.21486528;0.12913992;0.023105376;0.072406656;0.047756016;0.019426176;0.04930128;0.034363728;0.002354688;0.006328224;0.004341456;6.07804E-12;0.006328224;0.003164112;3.7638216;10.38402691;7.073924256
JURITI;Diesel TPP;-2.172659;-56.091834;0.043290518;0.214251379;0.128770949;0.023039361;0.07219978;0.04761957;0.019370673;0.049160419;0.034265546;0.00234796;0.006310143;0.004329052;6.06067E-12;0.006310143;0.003155072;3.753067824;10.35435826;7.053713044
HOSPITAL DE BASE;Diesel TPP;-20.852912;-49.355233;0.043052772;0.213074736;0.128063754;0.022912831;0.071803267;0.047358049;0.019264291;0.048890436;0.034077364;0.002335066;0.006275489;0.004305277;6.02739E-12;0.006275489;0.003137744;3.73245642;10.29749335;7.014974887
CURUÁ;Diesel TPP;-1.888886;-55.124777;0.042732331;0.211488826;0.127110578;0.022742292;0.071268837;0.047005564;0.019120908;0.048526546;0.033823727;0.002317686;0.00622878;0.004273233;5.98253E-12;0.00622878;0.00311439;3.704675832;10.22084935;6.962762589
YOKI ALIMENTOS;Diesel TPP;-22.236527;-45.929189;0.0426393;0.2110284;0.12683385;0.02269278;0.07111368;0.04690323;0.01907928;0.0484209;0.03375009;0.00231264;0.00621522;0.00426393;5.9695E-12;0.00621522;0.00310761;3.6966105;10.19859786;6.94760418
ASPEBRAS BAHIA;Diesel TPP;-12.801785;-38.390779;0.04238088;0.20974944;0.12606516;0.022555248;0.070682688;0.046618968;0.018963648;0.04812744;0.033545544;0.002298624;0.006177552;0.004238088;5.93332E-12;0.006177552;0.003088776;3.6742068;10.13678818;6.905497488
ROVEMA BANDEIRANTES;Diesel TPP;-8.748232;-63.818171;0.042174144;0.208726272;0.125450208;0.022445222;0.070337894;0.046391558;0.018871142;0.047892672;0.033381907;0.002287411;0.006147418;0.004217414;5.90438E-12;0.006147418;0.003073709;3.65628384;10.08734043;6.871812134
COMPONENT;Diesel TPP;-23.683018;-46.621224;0.04186404;0.20719152;0.12452778;0.022280184;0.069820704;0.046050444;0.018732384;0.04754052;0.033136452;0.002270592;0.006102216;0.004186404;5.86097E-12;0.006102216;0.003051108;3.6293994;10.01316881;6.821284104
REICHHOLD DO BRASIL;Diesel TPP;-23.538100;-46.177456;0.04186404;0.20719152;0.12452778;0.022280184;0.069820704;0.046050444;0.018732384;0.04754052;0.033136452;0.002270592;0.006102216;0.004186404;5.86097E-12;0.006102216;0.003051108;3.6293994;10.01316881;6.821284104
FUNFARME;Diesel TPP;-20.757915;-49.412911;0.041579778;0.205784664;0.123682221;0.022128899;0.069346613;0.045737756;0.018605189;0.047217714;0.032911451;0.002255174;0.006060781;0.004157978;5.82117E-12;0.006060781;0.003030391;3.60475533;9.945178156;6.774966743
KAISER - ARARAQUARA;Diesel TPP;-21.778026;-48.171860;0.0413472;0.2046336;0.1229904;0.02200512;0.06895872;0.04548192;0.01850112;0.0469536;0.03272736;0.00224256;0.00602688;0.00413472;5.78861E-12;0.00602688;0.00301344;3.584592;9.88954944;6.73707072
MARFRIG CAPÃO;Diesel TPP;-31.835819;-52.571276;0.0413472;0.2046336;0.1229904;0.02200512;0.06895872;0.04548192;0.01850112;0.0469536;0.03272736;0.00224256;0.00602688;0.00413472;5.78861E-12;0.00602688;0.00301344;3.584592;9.88954944;6.73707072
MARFRIG PARANAÍBA;Diesel TPP;-19.664312;-51.187585;0.0413472;0.2046336;0.1229904;0.02200512;0.06895872;0.04548192;0.01850112;0.0469536;0.03272736;0.00224256;0.00602688;0.00413472;5.78861E-12;0.00602688;0.00301344;3.584592;9.88954944;6.73707072
CEASA-PE;Diesel TPP;-8.054948;-34.975747;0.0413472;0.2046336;0.1229904;0.02200512;0.06895872;0.04548192;0.01850112;0.0469536;0.03272736;0.00224256;0.00602688;0.00413472;5.78861E-12;0.00602688;0.00301344;3.584592;9.88954944;6.73707072
COPA DOR;Diesel TPP;-22.942568;-43.376232;0.0413472;0.2046336;0.1229904;0.02200512;0.06895872;0.04548192;0.01850112;0.0469536;0.03272736;0.00224256;0.00602688;0.00413472;5.78861E-12;0.00602688;0.00301344;3.584592;9.88954944;6.73707072
MARFRIG RIO VERDE;Diesel TPP;-17.776789;-50.911854;0.0413472;0.2046336;0.1229904;0.02200512;0.06895872;0.04548192;0.01850112;0.0469536;0.03272736;0.00224256;0.00602688;0.00413472;5.78861E-12;0.00602688;0.00301344;3.584592;9.88954944;6.73707072
LATICÍNIO SCALA;Diesel TPP;-19.866439;-47.457835;0.0413472;0.2046336;0.1229904;0.02200512;0.06895872;0.04548192;0.01850112;0.0469536;0.03272736;0.00224256;0.00602688;0.00413472;5.78861E-12;0.00602688;0.00301344;3.584592;9.88954944;6.73707072
JARAGUÁ;Diesel TPP;-18.889267;-48.184005;0.0413472;0.2046336;0.1229904;0.02200512;0.06895872;0.04548192;0.01850112;0.0469536;0.03272736;0.00224256;0.00602688;0.00413472;5.78861E-12;0.00602688;0.00301344;3.584592;9.88954944;6.73707072
RONDOLÂNDIA;Diesel TPP;-10.846427;-61.458766;0.041295516;0.204377808;0.122836662;0.021977614;0.068872522;0.045425068;0.018477994;0.046894908;0.032686451;0.002239757;0.006019346;0.004129552;5.78137E-12;0.006019346;0.003009673;3.58011126;9.877187503;6.728649382
MARECHAL THAUMATURGO;Diesel TPP;-8.938069;-72.784890;0.040814855;0.201998942;0.121406899;0.021721804;0.068070876;0.04489634;0.018262918;0.046349072;0.032305995;0.002213687;0.005949284;0.004081485;5.71408E-12;0.005949284;0.002974642;3.538440378;9.762221491;6.650330934
ANAMÃ;Diesel TPP;-3.571428;-61.401310;0.040468572;0.200285136;0.120376854;0.021537511;0.067493347;0.044515429;0.018107971;0.045955836;0.032031904;0.002194906;0.005898809;0.004046857;5.6656E-12;0.005898809;0.002949404;3.50841942;9.679396514;6.593907967
FRIGOBET;Diesel TPP;-19.953674;-44.213121;0.04031352;0.19951776;0.11991564;0.021454992;0.067234752;0.044344872;0.018038592;0.04577976;0.031909176;0.002186496;0.005876208;0.004031352;5.64389E-12;0.005876208;0.002938104;3.4949772;9.642310704;6.568643952
SINTERAMA;Diesel TPP;-21.430631;-45.971563;0.039383208;0.194913504;0.117148356;0.020959877;0.065683181;0.043321529;0.017622317;0.044723304;0.03117281;0.002136038;0.005740603;0.003938321;5.51365E-12;0.005740603;0.002870302;3.41432388;9.419795842;6.417059861
ASSEMBLEIA PARAENSE;Diesel TPP;-1.413617;-48.392375;0.039383208;0.194913504;0.117148356;0.020959877;0.065683181;0.043321529;0.017622317;0.044723304;0.03117281;0.002136038;0.005740603;0.003938321;5.51365E-12;0.005740603;0.002870302;3.41432388;9.419795842;6.417059861
ZANOTTI PACATUBA;Diesel TPP;-3.891267;-38.609957;0.039383208;0.194913504;0.117148356;0.020959877;0.065683181;0.043321529;0.017622317;0.044723304;0.03117281;0.002136038;0.005740603;0.003938321;5.51365E-12;0.005740603;0.002870302;3.41432388;9.419795842;6.417059861
ATALAIA DO NORTE;Diesel TPP;-4.367257;-70.189269;0.03927984;0.19440192;0.11684088;0.020904864;0.065510784;0.043207824;0.017576064;0.04460592;0.031090992;0.002130432;0.005725536;0.003927984;5.49918E-12;0.005725536;0.002862768;3.4053624;9.395071968;6.400217184
DISTRIBUIDORA AMARAL;Diesel TPP;-20.137482;-44.865072;0.038763;0.191844;0.1153035;0.0206298;0.0646488;0.0426393;0.0173448;0.044019;0.0306819;0.0021024;0.0056502;0.0038763;5.42682E-12;0.0056502;0.0028251;3.360555;9.2714526;6.3160038
CORFIO;Diesel TPP;-26.788281;-51.000738;0.03824616;0.18928608;0.11376612;0.020354736;0.063786816;0.042070776;0.017113536;0.04343208;0.030272808;0.002074368;0.005574864;0.003824616;5.35446E-12;0.005574864;0.002787432;3.3157476;9.147833232;6.231790416
BIMBO DO BRASIL;Diesel TPP;-23.561606;-46.592401;0.03824616;0.18928608;0.11376612;0.020354736;0.063786816;0.042070776;0.017113536;0.04343208;0.030272808;0.002074368;0.005574864;0.003824616;5.35446E-12;0.005574864;0.002787432;3.3157476;9.147833232;6.231790416
ETERNIT SIMÕES FILHO;Diesel TPP;-12.795591;-38.399362;0.03824616;0.18928608;0.11376612;0.020354736;0.063786816;0.042070776;0.017113536;0.04343208;0.030272808;0.002074368;0.005574864;0.003824616;5.35446E-12;0.005574864;0.002787432;3.3157476;9.147833232;6.231790416
ADRIANA AGRÍCOLA;Diesel TPP;-16.944746;-53.536722;0.03772932;0.18672816;0.11222874;0.020079672;0.062924832;0.041502252;0.016882272;0.04284516;0.029863716;0.002046336;0.005499528;0.003772932;5.2821E-12;0.005499528;0.002749764;3.2709402;9.024213864;6.147577032
GERALDISCOS;Diesel TPP;-23.592287;-46.641385;0.037625952;0.186216576;0.111921264;0.020024659;0.062752435;0.041388547;0.016836019;0.042727776;0.029781898;0.00204073;0.005484461;0.003762595;5.26763E-12;0.005484461;0.00274223;3.26197872;8.99948999;6.130734355
USINA ALA MEGA;Diesel TPP;-23.532494;-46.700955;0.037625952;0.186216576;0.111921264;0.020024659;0.062752435;0.041388547;0.016836019;0.042727776;0.029781898;0.00204073;0.005484461;0.003762595;5.26763E-12;0.005484461;0.00274223;3.26197872;8.99948999;6.130734355
ALA POLO;Diesel TPP;-23.582847;-46.686878;0.037625952;0.186216576;0.111921264;0.020024659;0.062752435;0.041388547;0.016836019;0.042727776;0.029781898;0.00204073;0.005484461;0.003762595;5.26763E-12;0.005484461;0.00274223;3.26197872;8.99948999;6.130734355
TILIBRA;Diesel TPP;-22.303263;-49.074230;0.0374709;0.1854492;0.11146005;0.01994214;0.06249384;0.04121799;0.01676664;0.0425517;0.02965917;0.00203232;0.00546186;0.00374709;5.24593E-12;0.00546186;0.00273093;3.2485365;8.96240418;6.10547034
MORUMBI SHOPPING;Diesel TPP;-23.522074;-46.623659;0.0374709;0.1854492;0.11146005;0.01994214;0.06249384;0.04121799;0.01676664;0.0425517;0.02965917;0.00203232;0.00546186;0.00374709;5.24593E-12;0.00546186;0.00273093;3.2485365;8.96240418;6.10547034
SE04;Diesel TPP;-23.531234;-46.682415;0.0374709;0.1854492;0.11146005;0.01994214;0.06249384;0.04121799;0.01676664;0.0425517;0.02965917;0.00203232;0.00546186;0.00374709;5.24593E-12;0.00546186;0.00273093;3.2485365;8.96240418;6.10547034
MORUMBI CORPORATE TORRE ALTA;Diesel TPP;-23.591185;-46.599954;0.0374709;0.1854492;0.11146005;0.01994214;0.06249384;0.04121799;0.01676664;0.0425517;0.02965917;0.00203232;0.00546186;0.00374709;5.24593E-12;0.00546186;0.00273093;3.2485365;8.96240418;6.10547034
MORUMBI CORPORATE TORRE BAIXA;Diesel TPP;-23.549333;-46.584848;0.0374709;0.1854492;0.11146005;0.01994214;0.06249384;0.04121799;0.01676664;0.0425517;0.02965917;0.00203232;0.00546186;0.00374709;5.24593E-12;0.00546186;0.00273093;3.2485365;8.96240418;6.10547034
GUARIBA;Diesel TPP;-9.131372;-60.389363;0.037419216;0.185193408;0.111306312;0.019914634;0.062407642;0.041161138;0.016743514;0.042493008;0.029618261;0.002029517;0.005454326;0.003741922;5.23869E-12;0.005454326;0.002727163;3.24405576;8.950042243;6.097049002
FIBRASA;Diesel TPP;-7.905615;-34.896273;0.03721248;0.18417024;0.11069136;0.019804608;0.062062848;0.040933728;0.016651008;0.04225824;0.029454624;0.002018304;0.005424192;0.003721248;5.20975E-12;0.005424192;0.002712096;3.2261328;8.900594496;6.063363648
CORY;Diesel TPP;-21.366706;-46.942078;0.03721248;0.18417024;0.11069136;0.019804608;0.062062848;0.040933728;0.016651008;0.04225824;0.029454624;0.002018304;0.005424192;0.003721248;5.20975E-12;0.005424192;0.002712096;3.2261328;8.900594496;6.063363648
COOPERSUL;Diesel TPP;-31.762667;-52.486035;0.03721248;0.18417024;0.11069136;0.019804608;0.062062848;0.040933728;0.016651008;0.04225824;0.029454624;0.002018304;0.005424192;0.003721248;5.20975E-12;0.005424192;0.002712096;3.2261328;8.900594496;6.063363648
ITAPICURU;Diesel TPP;-4.465218;-43.887157;0.03721248;0.18417024;0.11069136;0.019804608;0.062062848;0.040933728;0.016651008;0.04225824;0.029454624;0.002018304;0.005424192;0.003721248;5.20975E-12;0.005424192;0.002712096;3.2261328;8.900594496;6.063363648
NESTLÉ;Diesel TPP;-22.473422;-47.460322;0.03721248;0.18417024;0.11069136;0.019804608;0.062062848;0.040933728;0.016651008;0.04225824;0.029454624;0.002018304;0.005424192;0.003721248;5.20975E-12;0.005424192;0.002712096;3.2261328;8.900594496;6.063363648
SEDE 1;Diesel TPP;-23.611174;-46.909449;0.03721248;0.18417024;0.11069136;0.019804608;0.062062848;0.040933728;0.016651008;0.04225824;0.029454624;0.002018304;0.005424192;0.003721248;5.20975E-12;0.005424192;0.002712096;3.2261328;8.900594496;6.063363648
MARABÁ GUSA SIDERÚRGICA;Diesel TPP;-5.369499;-49.133968;0.03721248;0.18417024;0.11069136;0.019804608;0.062062848;0.040933728;0.016651008;0.04225824;0.029454624;0.002018304;0.005424192;0.003721248;5.20975E-12;0.005424192;0.002712096;3.2261328;8.900594496;6.063363648
SÃO CARLOS;Diesel TPP;-8.787932;-63.893016;0.03721248;0.18417024;0.11069136;0.019804608;0.062062848;0.040933728;0.016651008;0.04225824;0.029454624;0.002018304;0.005424192;0.003721248;5.20975E-12;0.005424192;0.002712096;3.2261328;8.900594496;6.063363648
EXTRA SÃO JOSÉ DOS CAMPOS;Diesel TPP;-23.199920;-45.809454;0.03721248;0.18417024;0.11069136;0.019804608;0.062062848;0.040933728;0.016651008;0.04225824;0.029454624;0.002018304;0.005424192;0.003721248;5.20975E-12;0.005424192;0.002712096;3.2261328;8.900594496;6.063363648
SUPERCENTER GRANJA VIANA;Diesel TPP;-23.595394;-46.900125;0.03721248;0.18417024;0.11069136;0.019804608;0.062062848;0.040933728;0.016651008;0.04225824;0.029454624;0.002018304;0.005424192;0.003721248;5.20975E-12;0.005424192;0.002712096;3.2261328;8.900594496;6.063363648
KAPPESBERG;Diesel TPP;-29.476235;-51.418246;0.03721248;0.18417024;0.11069136;0.019804608;0.062062848;0.040933728;0.016651008;0.04225824;0.029454624;0.002018304;0.005424192;0.003721248;5.20975E-12;0.005424192;0.002712096;3.2261328;8.900594496;6.063363648
JACAREACANGA;Diesel TPP;-6.224844;-57.765036;0.036618114;0.181228632;0.108923373;0.019488284;0.061071566;0.040279925;0.016385054;0.041583282;0.028984168;0.001986067;0.005337556;0.003661811;5.12654E-12;0.005337556;0.002668778;3.17460429;8.758432223;5.966518256
EXTRA ARACAJU;Diesel TPP;-10.940589;-37.067332;0.036385536;0.180077568;0.108231552;0.019364506;0.060683674;0.04002409;0.016280986;0.041319168;0.028800077;0.001973453;0.005303654;0.003638554;5.09398E-12;0.005303654;0.002651827;3.15444096;8.702803507;5.928622234
SUPERCENTER TIJUCA;Diesel TPP;-22.981767;-43.227230;0.036385536;0.180077568;0.108231552;0.019364506;0.060683674;0.04002409;0.016280986;0.041319168;0.028800077;0.001973453;0.005303654;0.003638554;5.09398E-12;0.005303654;0.002651827;3.15444096;8.702803507;5.928622234
PACARANA;Diesel TPP;-11.492049;-60.997724;0.035765328;0.177008064;0.106386696;0.019034429;0.059649293;0.039341861;0.016003469;0.040614864;0.028309166;0.001939814;0.005213251;0.003576533;5.00715E-12;0.005213251;0.002606626;3.10067208;8.554460266;5.827566173
AMBEV - JOÃO PESSOA;Diesel TPP;-26.499603;-49.130280;0.0348867;0.1726596;0.10377315;0.01856682;0.05818392;0.03837537;0.01561032;0.0396171;0.02761371;0.00189216;0.00508518;0.00348867;4.88414E-12;0.00508518;0.00254259;3.0244995;8.34430734;5.68440342
MOTOROLA SP;Diesel TPP;-22.692595;-46.994837;0.034679964;0.171636432;0.103158198;0.018456794;0.057839126;0.03814796;0.015517814;0.039382332;0.027450073;0.001880947;0.005055046;0.003467996;4.85519E-12;0.005055046;0.002527523;3.00657654;8.294859593;5.650718066
CONDOMÍNIO CANOAS SHOPPING CENTER;Diesel TPP;-29.924546;-51.192334;0.034473228;0.170613264;0.102543246;0.018346769;0.057494333;0.037920551;0.015425309;0.039147564;0.027286436;0.001869734;0.005024911;0.003447323;4.82625E-12;0.005024911;0.002512456;2.98865358;8.245411846;5.617032713
GRANJA VIANA;Diesel TPP;-23.611906;-46.918070;0.03411144;0.16882272;0.10146708;0.018154224;0.056890944;0.037522584;0.015263424;0.03873672;0.027000072;0.001850112;0.004972176;0.003411144;4.7756E-12;0.004972176;0.002486088;2.9572884;8.158878288;5.558083344
BCP;Diesel TPP;-23.609746;-46.662539;0.03385302;0.16754376;0.10069839;0.018016692;0.056459952;0.037238322;0.015147792;0.03844326;0.026795526;0.001836096;0.004934508;0.003385302;4.73942E-12;0.004934508;0.002467254;2.9348847;8.097068604;5.515976652
EDIFÍCIO ODEBRECHT;Diesel TPP;-23.568530;-46.673769;0.0335946;0.1662648;0.0999297;0.01787916;0.05602896;0.03695406;0.01503216;0.0381498;0.02659098;0.00182208;0.00489684;0.00335946;4.70324E-12;0.00489684;0.00244842;2.912481;8.03525892;5.47386996
BASÍLICA NOSSA SENHORA DA CONCEIÇÃO APARECIDA;Diesel TPP;-22.843809;-45.235071;0.033491232;0.165753216;0.099622224;0.017824147;0.055856563;0.036840355;0.014985907;0.038032416;0.026509162;0.001816474;0.004881773;0.003349123;4.68877E-12;0.004881773;0.002440886;2.90351952;8.010535046;5.457027283
SERGIPE INDUSTRIAL FILIAL;Diesel TPP;-10.910925;-37.100806;0.033491232;0.165753216;0.099622224;0.017824147;0.055856563;0.036840355;0.014985907;0.038032416;0.026509162;0.001816474;0.004881773;0.003349123;4.68877E-12;0.004881773;0.002440886;2.90351952;8.010535046;5.457027283
CALÇOENE;Diesel TPP;2.487348;-50.971732;0.033491232;0.165753216;0.099622224;0.017824147;0.055856563;0.036840355;0.014985907;0.038032416;0.026509162;0.001816474;0.004881773;0.003349123;4.68877E-12;0.004881773;0.002440886;2.90351952;8.010535046;5.457027283
INJECT CAMPO BOM;Diesel TPP;-29.676904;-51.037040;0.033491232;0.165753216;0.099622224;0.017824147;0.055856563;0.036840355;0.014985907;0.038032416;0.026509162;0.001816474;0.004881773;0.003349123;4.68877E-12;0.004881773;0.002440886;2.90351952;8.010535046;5.457027283
FUGA COUROS;Diesel TPP;-28.454245;-52.197437;0.033491232;0.165753216;0.099622224;0.017824147;0.055856563;0.036840355;0.014985907;0.038032416;0.026509162;0.001816474;0.004881773;0.003349123;4.68877E-12;0.004881773;0.002440886;2.90351952;8.010535046;5.457027283
SARGEL;Diesel TPP;-21.470643;-47.024127;0.033491232;0.165753216;0.099622224;0.017824147;0.055856563;0.036840355;0.014985907;0.038032416;0.026509162;0.001816474;0.004881773;0.003349123;4.68877E-12;0.004881773;0.002440886;2.90351952;8.010535046;5.457027283
GRUPO GERADORES MOORE;Diesel TPP;-23.545942;-46.790236;0.033491232;0.165753216;0.099622224;0.017824147;0.055856563;0.036840355;0.014985907;0.038032416;0.026509162;0.001816474;0.004881773;0.003349123;4.68877E-12;0.004881773;0.002440886;2.90351952;8.010535046;5.457027283
CROMEX - BA;Diesel TPP;-12.776674;-38.409490;0.033491232;0.165753216;0.099622224;0.017824147;0.055856563;0.036840355;0.014985907;0.038032416;0.026509162;0.001816474;0.004881773;0.003349123;4.68877E-12;0.004881773;0.002440886;2.90351952;8.010535046;5.457027283
HOTEL HILTON MORUMBI;Diesel TPP;-23.610303;-46.696883;0.03307776;0.16370688;0.09839232;0.017604096;0.055166976;0.036385536;0.014800896;0.03756288;0.026181888;0.001794048;0.004821504;0.003307776;4.63089E-12;0.004821504;0.002410752;2.8676736;7.911639552;5.389656576
GREIF;Diesel TPP;-23.668872;-46.714573;0.03307776;0.16370688;0.09839232;0.017604096;0.055166976;0.036385536;0.014800896;0.03756288;0.026181888;0.001794048;0.004821504;0.003307776;4.63089E-12;0.004821504;0.002410752;2.8676736;7.911639552;5.389656576
ALCON LABORATÓRIOS DO BRASIL;Diesel TPP;-23.540677;-46.601048;0.03269013;0.16178844;0.097239285;0.017397798;0.054520488;0.035959143;0.014627448;0.03712269;0.025875069;0.001773024;0.004765002;0.003269013;4.57662E-12;0.004765002;0.002382501;2.83406805;7.818925026;5.326496538
SHOPPING CENTER GRANDE RIO;Diesel TPP;-22.781403;-43.382255;0.0323025;0.15987;0.09608625;0.0171915;0.053874;0.03553275;0.014454;0.0366825;0.02556825;0.001752;0.0047085;0.00323025;4.52235E-12;0.0047085;0.00235425;2.8004625;7.7262105;5.2633365
EMATEX;Diesel TPP;-19.758150;-44.076220;0.032224974;0.159486312;0.095855643;0.01715024;0.053744702;0.035447471;0.01441931;0.036594462;0.025506886;0.001747795;0.0046972;0.003222497;4.5115E-12;0.0046972;0.0023486;2.79374139;7.707667595;5.250704492
COMPLEM;Diesel TPP;-17.723121;-49.106984;0.032199132;0.159358416;0.095778774;0.017136487;0.053701603;0.035419045;0.014407747;0.036565116;0.025486432;0.001746394;0.004693433;0.003219913;4.50788E-12;0.004693433;0.002346716;2.79150102;7.701486626;5.246493823
AMATURÁ;Diesel TPP;-3.366057;-68.199309;0.031992396;0.158335248;0.095163822;0.017026462;0.05335681;0.035191636;0.014315242;0.036330348;0.025322795;0.001735181;0.004663298;0.00319924;4.47894E-12;0.004663298;0.002331649;2.77357806;7.652038879;5.21280847
PEIXOTO GONÇALVES;Diesel TPP;-10.324425;-36.582218;0.03178566;0.15731208;0.09454887;0.016916436;0.053012016;0.034964226;0.014222736;0.03609558;0.025159158;0.001723968;0.004633164;0.003178566;4.44999E-12;0.004633164;0.002316582;2.7556551;7.602591132;5.179123116
HIPER BOMPREÇO ROTULA;Diesel TPP;-12.950037;-38.442424;0.03178566;0.15731208;0.09454887;0.016916436;0.053012016;0.034964226;0.014222736;0.03609558;0.025159158;0.001723968;0.004633164;0.003178566;4.44999E-12;0.004633164;0.002316582;2.7556551;7.602591132;5.179123116
BAGRE;Diesel TPP;-1.905640;-50.197114;0.031578924;0.156288912;0.093933918;0.01680641;0.052667222;0.034736816;0.01413023;0.035860812;0.024995521;0.001712755;0.00460303;0.003157892;4.42105E-12;0.00460303;0.002301515;2.73773214;7.553143385;5.145437762
NORMÂNDIA;Diesel TPP;3.914835;-59.606802;0.03152724;0.15603312;0.09378018;0.016778904;0.052581024;0.034679964;0.014107104;0.03580212;0.024954612;0.001709952;0.004595496;0.003152724;4.41381E-12;0.004595496;0.002297748;2.7332514;7.540781448;5.137016424
GEOLAB;Diesel TPP;-16.358879;-48.962675;0.0310104;0.1534752;0.0922428;0.01650384;0.05171904;0.03411144;0.01387584;0.0352152;0.02454552;0.00168192;0.00452016;0.00310104;4.34146E-12;0.00452016;0.00226008;2.688444;7.41716208;5.05280304
BRASILGRÁFICA;Diesel TPP;-23.500515;-46.931789;0.0310104;0.1534752;0.0922428;0.01650384;0.05171904;0.03411144;0.01387584;0.0352152;0.02454552;0.00168192;0.00452016;0.00310104;4.34146E-12;0.00452016;0.00226008;2.688444;7.41716208;5.05280304
OCEANO;Diesel TPP;-23.362893;-46.869749;0.0310104;0.1534752;0.0922428;0.01650384;0.05171904;0.03411144;0.01387584;0.0352152;0.02454552;0.00168192;0.00452016;0.00310104;4.34146E-12;0.00452016;0.00226008;2.688444;7.41716208;5.05280304
